     2.11           OBSERVATION DATA    M (MIXED)           RINEX VERSION / TYPE
Mdb2Rinex 5.6.29X   Unknown             20230309 235937 UTC PGM / RUN BY / DATE
gfzrnx-1.15-8044    HEADER EDIT         20230302 030845 UTC COMMENT
SNR is mapped to RINEX snr flag value [1-9]                 COMMENT
LX:     < 12dBHz -> 1; 12-17dBHz -> 2; 18-23dBHz -> 3       COMMENT
       24-29dBHz -> 4; 30-35dBHz -> 5; 36-41dBHz -> 6       COMMENT
       42-47dBHz -> 7; 48-53dBHz -> 8; >= 54dBHz -> 9       COMMENT
Map of observations from RINEX 3 to RINEX 2.11              COMMENT
 G: C1C->C1 C2W->P2 C5Q->C5 L1C->L1 L2W->L2 L5Q->L5         COMMENT
MAD1                                                        MARKER NAME
IGN & CAM           Unknown                                 OBSERVER / AGENCY
1833575             LEICA GR50          4.61/7.811          REC # / TYPE / VERS
Unknown             LEIAR20         LEIM                    ANT # / TYPE
  4854006.8637  -312714.6848  4112992.0029                  APPROX POSITION XYZ
        0.0350        0.0000        0.0000                  ANTENNA: DELTA H/E/N
     6    C1    P2    C5    L1    L2    L5                  # / TYPES OF OBSERV
     1.000                                                  INTERVAL
  2023    03    01    17    00   00.0000000     GPS         TIME OF FIRST OBS
  2023    03    01    17    59   59.0000000     GPS         TIME OF LAST OBS
    10                                                      # OF SATELLITES
   G07  3600  3600        3600  3600                        PRN / # OF OBS
   G08  3600  3600  3600  3600  3600  3600                  PRN / # OF OBS
   G10  3600  3600  3600  3600  3600  3600                  PRN / # OF OBS
   G16  3600  3600        3600  3600                        PRN / # OF OBS
   G18  3600  3600  3600  3600  3600  3600                  PRN / # OF OBS
   G21  3600  3600        3600  3600                        PRN / # OF OBS
   G23  3600  3600  3600  3600  3600  3600                  PRN / # OF OBS
   G26  3600  3600  3600  3600  3600  3600                  PRN / # OF OBS
   G27  3600  3600  3600  3600  3600  3600                  PRN / # OF OBS
   G31   400   400         394   394                        PRN / # OF OBS
                                                            END OF HEADER
 23  3  1 17  0  0.0000000  0 10G07G08G10G16G18G21G23G26G27G31
  24942380.720    24942383.620                   131073100.3700  102134897.3970

  22978388.620    22978393.180    22978393.000   120752326.8250   94092779.4430
  90172304.0980
  22755435.320    22755439.800    22755439.000   119581168.1800   93180425.1690
  89297617.0900
  20343515.360    20343514.400                   106905987.8520   83303413.9720

  22246475.700    22246476.480    22246481.020   116906233.7480   91095890.5470
  87300317.0170
  24598789.920    24598820.460                   129267664.2360  100728157.1950

  22125970.520    22125971.600    22125976.480   116273081.3880   90602482.1820
  86827393.4650
  21050469.800    21050473.460    21050472.640   110621053.4900   86198284.0740
  82606733.6300
  20704663.740    20704665.660    20704666.340   108803995.5720   84782451.9440
  81249872.3960
  25884662.580    25884696.020                   136024338.3230  105992878.5210

 23  3  1 17  0  1.0000000  0 10G07G08G10G16G18G21G23G26G27G31
  24941987.360    24941990.320                   131071033.2910  102133286.6660

  22977910.300    22977914.840    22977914.660   120749813.2050   94090820.7800
  90170427.0500
  22754930.820    22754935.320    22754934.500   119578517.0720   93178359.3750
  89295637.3650
  20343459.100    20343458.140                   106905692.2140   83303183.6020

  22246993.740    22246994.520    22246999.040   116908956.0750   91098011.8400
  87302349.9150
  24598135.620    24598166.160                   129264226.0340  100725478.1300

  22125786.940    22125788.020    22125792.880   116272116.6800   90601730.4610
  86826673.0680
  21050882.600    21050886.260    21050885.460   110623222.8060   86199974.4490
  82608353.5690
  20704431.080    20704433.000    20704433.680   108802772.9170   84781499.2280
  81248959.3730
  25885295.500    25885328.940                   136027664.4430  105995470.3290

 23  3  1 17  0  2.0000000  0 10G07G08G10G16G18G21G23G26G27G31
  24941594.140    24941597.100                   131068967.0010  102131676.5680

  22977432.060    22977436.600    22977436.420   120747300.0390   94088862.4770
  90168550.3410
  22754426.460    22754430.940    22754430.120   119575866.5980   93176294.0760
  89293658.1190
  20343403.000    20343402.040                   106905397.4490   83302953.9170

  22247511.900    22247512.680    22247517.200   116911678.9870   91100133.5880
  87304383.2670
  24597481.380    24597511.920                   129260788.3630  100722799.4710

  22125603.520    22125604.620    22125609.480   116271152.9030   90600979.4710
  86825953.3700
  21051295.560    21051299.220    21051298.420   110625392.8940   86201665.4250
  82609974.0910
  20704198.540    20704200.460    20704201.140   108801550.8690   84780546.9850
  81248046.8090
  25885928.400    25885961.860                   136030990.6810  105998062.2390

 23  3  1 17  0  3.0000000  0 10G07G08G10G16G18G21G23G26G27G31
  24941201.020    24941203.980                   131066901.0940  102130066.7720

  22976953.820    22976958.380    22976958.200   120744786.9690   94086904.2470
  90166673.7010
  22753922.140    22753926.640    22753925.800   119573216.4290   93174229.0130
  89291679.1040
  20343347.020    20343346.060                   106905103.2220   83302724.6520

  22248030.100    22248030.880    22248035.400   116914402.1680   91102255.5470
  87306416.8030
  24596827.200    24596857.780                   129257350.8630  100720120.9610

  22125420.240    22125421.340    22125426.180   116270189.7240   90600228.9410
  86825234.1070
  21051708.600    21051712.240    21051711.440   110627563.4050   86203356.7320
  82611594.9290
  20703966.040    20703967.960    20703968.640   108800329.0780   84779594.9410
  81247134.4360
  25886561.320    25886594.760                   136034316.6400  106000653.9330

 23  3  1 17  0  4.0000000  0 10G07G08G10G16G18G21G23G26G27G31
  24940808.020    24940810.980                   131064835.7180  102128457.3800

  22976475.620    22976480.180    22976480.000   120742274.0610   94084946.1380
  90164797.1810
  22753417.900    22753422.400    22753421.560   119570566.6480   93172164.2530
  89289700.3700
  20343291.140    20343290.180                   106904809.5940   83302495.8510

  22248548.380    22248549.140    22248553.660   116917125.6630   91104377.7490
  87308450.5860
  24596173.040    24596203.620                   129253913.6260  100717442.6740

  22125237.060    22125238.160    22125243.020   116269227.1900   90599478.9170
  86824515.3340
  21052121.720    21052125.380    21052124.580   110629734.4150   86205048.4290
  82613216.1320
  20703733.600    20703735.520    20703736.200   108799107.6370   84778643.1720
  81246222.3190
  25887194.160    25887227.640                   136037642.4810  106003245.5340

 23  3  1 17  0  5.0000000  0 10G07G08G10G16G18G21G23G26G27G31
  24940415.060    24940418.000                   131062770.7150  102126848.2870

  22975997.440    22976002.000    22976001.820   120739761.2160   94082988.0770
  90162920.7140
  22752913.720    22752918.220    22752917.360   119567917.1400   93170099.7040
  89287721.8390
  20343235.360    20343234.400                   106904516.4500   83302267.4270

  22249066.680    22249067.440    22249071.980   116919849.3770   91106500.1230
  87310484.5300
  24595518.940    24595549.500                   129250476.4840  100714764.4380

  22125054.000    22125055.100    22125059.940   116268265.1980   90598729.3150
  86823796.9650
  21052534.940    21052538.580    21052537.780   110631905.8160   86206740.4280
  82614837.6310
  20703501.220    20703503.120    20703503.800   108797886.4010   84777691.5600
  81245310.3630
  25887826.980    25887860.440                   136040968.0300  106005836.9020

 23  3  1 17  0  6.0000000  0 10G07G08G10G16G18G21G23G26G27G31
  24940022.180    24940025.160                   131060706.1430  102125239.5440

  22975519.300    22975523.840    22975523.660   120737248.4970   94081030.1210
  90161044.3230
  22752409.580    22752414.080    22752413.240   119565267.9480   93168035.4000
  89285743.5480
  20343179.700    20343178.720                   106904223.8760   83302039.4470

  22249585.040    22249585.800    22249590.320   116922573.3590   91108622.7050
  87312518.6630
  24594864.860    24594895.420                   129247039.5430  100712086.3380

  22124871.060    22124872.140    22124877.000   116267303.8030   90597980.1760
  86823079.0400
  21052948.220    21052951.860    21052951.060   110634077.6410   86208432.7590
  82616459.4490
  20703268.880    20703270.780    20703271.460   108796665.4590   84776740.1770
  81244398.6190
  25888459.760    25888493.180                   136044293.4140  106008428.1380

 23  3  1 17  0  7.0000000  0 10G07G08G10G16G18G21G23G26G27G31
  24939629.400    24939632.420                   131058642.1310  102123631.2370

  22975041.180    22975045.720    22975045.540   120734735.9720   94079072.3140
  90159168.1010
  22751905.540    22751910.040    22751909.180   119562619.1630   93165971.4140
  89283765.5700
  20343124.140    20343123.180                   106903931.9480   83301811.9710

  22250103.460    22250104.220    22250108.760   116925297.7160   91110745.5810
  87314553.0850
  24594210.860    24594241.380                   129243602.8530  100709408.4580

  22124688.220    22124689.340    22124694.180   116266343.1170   90597231.5930
  86822361.6470
  21053361.600    21053365.260    21053364.460   110636250.0260   86210125.5280
  82618081.6820
  20703036.620    20703038.520    20703039.200   108795444.8990   84775789.0920
  81243487.1630
  25889092.540    25889125.920                   136047618.6720  106011019.2750

 23  3  1 17  0  8.0000000  0 10G07G08G10G16G18G21G23G26G27G31
  24939236.760    24939239.780                   131056578.7670  102122023.4210

  22974563.120    22974567.680    22974567.480   120732223.8260   94077114.8030
  90157292.1500
  22751401.600    22751406.100    22751405.240   119559970.9510   93163907.8750
  89281788.0140
  20343068.740    20343067.780                   106903640.8320   83301585.1270

  22250621.980    22250622.740    22250627.280   116928022.5920   91112868.8580
  87316587.8950
  24593556.940    24593587.460                   129240166.6140  100706730.9270

  22124505.580    22124506.680    22124511.520   116265383.2770   90596483.6660
  86821644.8890
  21053775.140    21053778.780    21053777.980   110638423.1140   86211818.8390
  82619704.4410
  20702804.460    20702806.360    20702807.040   108794224.8740   84774838.4260
  81242576.1060
  25889725.300    25889758.700                   136050943.9820  106013610.4570

 23  3  1 17  0  9.0000000  0 10G07G08G10G16G18G21G23G26G27G31
  24938844.240    24938847.240                   131054515.9190  102120416.0090

  22974085.100    22974089.660    22974089.460   120729711.8250   94075157.4000
  90155416.3220
  22750897.740    22750902.240    22750901.360   119557323.1100   93161844.6230
  89279810.7340
  20343013.460    20343012.500                   106903350.3020   83301358.7420

  22251140.560    22251141.320    22251145.860   116930747.7820   91114992.3790
  87318622.9400
  24592903.040    24592933.560                   129236730.5880  100704053.5600

  22124323.040    22124324.140    22124328.980   116264424.0800   90595736.2420
  86820928.6080
  21054188.760    21054192.400    21054191.600   110640596.6700   86213512.5220
  82621327.5530
  20702572.340    20702574.240    20702574.920   108793005.1700   84773888.0070
  81241665.2900
  25890358.020    25890391.380                   136054269.1110  106016201.4990

 23  3  1 17  0 10.0000000  0 10G07G08G10G16G18G21G23G26G27G31
  24938451.780    24938454.800                   131052453.5250  102118808.9400

  22973607.120    22973611.680    22973611.460   120727199.9680   94073200.1080
  90153540.5790
  22750393.920    22750398.420    22750397.540   119554675.5970   93159781.6320
  89277833.7010
  20342958.280    20342957.320                   106903060.3370   83301132.7960

  22251659.200    22251659.960    22251664.500   116933473.2590   91117116.1270
  87320658.1960
  24592249.200    24592279.700                   129233294.7800  100701376.3560

  22124140.620    22124141.740    22124146.560   116263465.5090   90594989.3060
  86820212.7920
  21054602.460    21054606.100    21054605.300   110642770.6810   86215206.5520
  82622951.0040
  20702340.300    20702342.200    20702342.880   108791785.7620   84772937.8210
  81240754.6990
  25890990.700    25891024.060                   136057594.0300  106018792.3920

 23  3  1 17  0 11.0000000  0 10G07G08G10G16G18G21G23G26G27G31
  24938059.340    24938062.340                   131050391.2410  102117201.9660

  22973129.080    22973133.640    22973133.420   120724687.9190   94071242.6720
  90151664.6980
  22749890.120    22749894.640    22749893.740   119552028.1180   93157718.6660
  89275856.6890
  20342903.140    20342902.200                   106902770.6220   83300907.0430

  22252177.840    22252178.580    22252183.140   116936198.6940   91119239.8420
  87322693.4220
  24591595.300    24591625.800                   129229858.8300  100698699.0620

  22123958.260    22123959.380    22123964.200   116262507.2270   90594242.5940
  86819497.1910
  21055016.180    21055019.840    21055019.020   110644944.8440   86216900.7050
  82624574.5660
  20702108.240    20702110.160    20702110.820   108790566.3210   84771987.6070
  81239844.0750
  25891623.300    25891656.640                   136060918.4730  106021382.9100

 23  3  1 17  0 12.0000000  0 10G07G08G10G16G18G21G23G26G27G31
  24937666.960    24937669.980                   131048329.3680  102115595.3220

  22972651.080    22972655.620    22972655.420   120722175.9780   94069285.3190
  90149788.9020
  22749386.380    22749390.880    22749389.980   119549380.9150   93155655.9140
  89273879.8860
  20342848.120    20342847.160                   106902481.4140   83300681.6880

  22252696.520    22252697.260    22252701.800   116938924.3600   91121363.7380
  87324728.8240
  24590941.440    24590971.960                   129226423.0460  100696021.9200

  22123776.020    22123777.140    22123781.940   116261549.5070   90593496.3210
  86818782.0170
  21055429.980    21055433.640    21055432.840   110647119.4040   86218595.1670
  82626198.4220
  20701876.240    20701878.160    20701878.820   108789347.1390   84771037.6000
  81238933.6500
  25892255.840    25892289.180                   136064242.6450  106023973.2130

 23  3  1 17  0 13.0000000  0 10G07G08G10G16G18G21G23G26G27G31
  24937274.740    24937277.740                   131046268.1330  102113989.1580

  22972173.140    22972177.660    22972177.460   120719664.3390   94067328.2000
  90147913.3390
  22748882.720    22748887.240    22748886.340   119546734.2240   93153593.5620
  89271903.4650
  20342793.220    20342792.260                   106902192.9390   83300456.9020

  22253215.280    22253216.020    22253220.580   116941650.4960   91123487.9980
  87326764.5710
  24590287.640    24590318.160                   129222987.6580  100693345.0410

  22123593.920    22123595.040    22123599.840   116260592.5810   90592750.6670
  86818067.4270
  21055843.920    21055847.560    21055846.760   110649294.5900   86220290.1170
  82627822.7520
  20701644.320    20701646.240    20701646.900   108788128.4130   84770087.9430
  81238023.5630
  25892888.380    25892921.700                   136067566.8180  106026563.5080

 23  3  1 17  0 14.0000000  0 10G07G08G10G16G18G21G23G26G27G31
  24936882.580    24936885.560                   131044207.2340  102112383.2710

  22971695.200    22971699.740    22971699.520   120717152.7440   94065371.1180
  90146037.8000
  22748379.120    22748383.620    22748382.720   119544087.7560   93151531.3810
  89269927.2050
  20342738.420    20342737.460                   106901904.9360   83300232.4870

  22253734.100    22253734.820    22253739.380   116944376.8110   91125612.3990
  87328800.4550
  24589633.920    24589664.380                   129219552.3390  100690668.2230

  22123411.920    22123413.040    22123417.840   116259636.1750   90592005.4150
  86817353.2260
  21056257.900    21056261.560    21056260.740   110651470.1450   86221985.3510
  82629447.3500
  20701412.440    20701414.360    20701415.020   108786909.8880   84769138.4430
  81237113.6280
  25893520.880    25893554.160                   136070890.6750  106029153.5620

 23  3  1 17  0 15.0000000  0 10G07G08G10G16G18G21G23G26G27G31
  24936490.520    24936493.460                   131042146.8760  102110777.7900

  22971217.300    22971221.820    22971221.620   120714641.3390   94063414.1850
  90144162.4040
  22747875.580    22747880.100    22747879.180   119541441.6960   93149469.5210
  89267951.2590
  20342683.740    20342682.780                   106901617.5700   83300008.5630

  22254252.960    22254253.680    22254258.240   116947103.4860   91127737.0770
  87330836.6150
  24588980.200    24589010.660                   129216117.2990  100687991.6290

  22123230.060    22123231.160    22123235.960   116258680.4580   90591260.7020
  86816639.5490
  21056672.000    21056675.660    21056674.840   110653646.2240   86223680.9990
  82631072.3450
  20701180.640    20701182.540    20701183.220   108785691.7470   84768189.2400
  81236203.9780
  25894153.340    25894186.660                   136074214.4950  106031743.5780

 23  3  1 17  0 16.0000000  0 10G07G08G10G16G18G21G23G26G27G31
  24936098.560    24936101.480                   131040087.0580  102109172.7460

  22970739.420    22970743.960    22970743.740   120712130.1180   94061457.3930
  90142287.1510
  22747372.140    22747376.640    22747375.720   119538796.0300   93147407.9650
  89265975.6130
  20342629.160    20342628.220                   106901330.8190   83299785.1230

  22254771.900    22254772.620    22254777.180   116949830.5110   91129862.0330
  87332873.0190
  24588326.500    24588356.960                   129212682.5000  100685315.2280

  22123048.300    22123049.420    22123054.220   116257725.4080   90590516.5090
  86815926.3620
  21057086.200    21057089.860    21057089.040   110655822.8200   86225377.0480
  82632697.7220
  20700948.900    20700950.800    20700951.480   108784473.9450   84767240.3080
  81235294.5840
  25894785.760    25894819.060                   136077538.0690  106034333.4080

 23  3  1 17  0 17.0000000  0 10G07G08G10G16G18G21G23G26G27G31
  24935706.640    24935709.540                   131038027.4990  102107567.8770

  22970261.560    22970266.080    22970265.860   120709618.9130   94059500.6160
  90140411.8950
  22746868.720    22746873.220    22746872.300   119536150.5560   93145346.5620
  89264000.0880
  20342574.680    20342573.720                   106901044.4800   83299561.9990

  22255290.860    22255291.580    22255296.140   116952557.6590   91131987.0860
  87334909.5260
  24587672.860    24587703.320                   129209247.7220  100682638.8430

  22122866.660    22122867.780    22122872.560   116256770.8230   90589772.6810
  86815213.5280
  21057500.460    21057504.100    21057503.280   110657999.7210   86227073.3320
  82634323.3280
  20700717.200    20700719.100    20700719.760   108783256.2850   84766291.4820
  81234385.2940
  25895418.180    25895451.440                   136080861.3800  106036923.0400

 23  3  1 17  0 18.0000000  0 10G07G08G10G16G18G21G23G26G27G31
  24935314.840    24935317.700                   131035968.4450  102105963.4150

  22969783.720    22969788.260    22969788.040   120707107.9200   94057544.0000
  90138536.7990
  22746365.380    22746369.880    22746368.960   119533505.4630   93143285.4530
  89262024.8620
  20342520.320    20342519.360                   106900758.7660   83299339.3670

  22255809.880    22255810.600    22255815.160   116955285.1400   91134112.3940
  87336946.2870
  24587019.260    24587049.680                   129205813.2620  100679962.7100

  22122685.120    22122686.260    22122691.040   116255816.9100   90589029.3770
  86814501.1930
  21057914.800    21057918.460    21057917.640   110660177.1350   86228770.0180
  82635949.3220
  20700485.540    20700487.440    20700488.120   108782038.9880   84765342.9400
  81233476.2740
  25896050.520    25896083.780                   136084184.4910  106039512.5180

 23  3  1 17  0 19.0000000  0 10G07G08G10G16G18G21G23G26G27G31
  24934923.100    24934926.020                   131033909.8820  102104359.3460

  22969305.920    22969310.460    22969310.220   120704597.0120   94055587.4520
  90136661.7850
  22745862.100    22745866.600    22745865.660   119530860.7320   93141224.6280
  89260049.9090
  20342466.060    20342465.100                   106900473.6120   83299117.1710

  22256328.960    22256329.680    22256334.240   116958012.9190   91136237.9360
  87338983.2590
  24586365.700    24586396.100                   129202378.9700  100677286.6980

  22122503.720    22122504.860    22122509.620   116254863.6230   90588286.5580
  86813789.3190
  21058329.240    21058332.880    21058332.060   110662355.0030   86230467.0580
  82637575.6480
  20700253.960    20700255.860    20700256.520   108780821.9790   84764394.6240
  81232567.4690
  25896682.860    25896716.080                   136087507.4490  106042101.8750

 23  3  1 17  0 20.0000000  0 10G07G08G10G16G18G21G23G26G27G31
  24934531.440    24934534.360                   131031851.7290  102102755.5970

  22968828.140    22968832.660    22968832.440   120702086.2710   94053631.0310
  90134786.8940
  22745358.880    22745363.380    22745362.440   119528216.3250   93139164.0530
  89258075.1890
  20342411.900    20342410.940                   106900189.0230   83298895.4140

  22256848.100    22256848.780    22256853.360   116960740.9710   91138363.6880
  87341020.4430
  24585712.180    24585742.580                   129198944.8670  100674610.8310

  22122322.420    22122323.560    22122328.320   116253910.9320   90587544.1990
  86813077.9020
  21058743.760    21058747.400    21058746.580   110664533.3230   86232164.4480
  82639202.3140
  20700022.420    20700024.320    20700024.980   108779605.2630   84763446.5330
  81231658.8830
  25897315.140    25897348.360                   136090830.1850  106044691.0690

 23  3  1 17  0 21.0000000  0 10G07G08G10G16G18G21G23G26G27G31
  24934139.900    24934142.800                   131029794.0700  102101152.2220

  22968350.380    22968354.920    22968354.680   120699575.6680   94051674.7190
  90132912.0900
  22744855.720    22744860.220    22744859.280   119525572.2460   93137103.7380
  89256100.7150
  20342357.840    20342356.900                   106899904.9830   83298674.0820

  22257367.280    22257367.980    22257372.540   116963469.3060   91140489.6640
  87343057.8280
  24585058.660    24585089.080                   129195510.9930  100671935.1260

  22122141.240    22122142.400    22122147.160   116252958.8620   90586802.3320
  86812366.9440
  21059158.360    21059162.020    21059161.200   110666712.0950   86233862.1910
  82640829.3190
  20699790.940    20699792.840    20699793.500   108778388.8350   84762498.6700
  81230750.5100
  25897947.380    25897980.600                   136094152.7620  106047280.1360

 23  3  1 17  0 22.0000000  0 10G07G08G10G16G18G21G23G26G27G31
  24933748.420    24933751.340                   131027736.8540  102099549.1830

  22967872.660    22967877.180    22967876.960   120697065.1720   94049718.4920
  90131037.3710
  22744352.640    22744357.140    22744356.200   119522928.5030   93135043.6800
  89254126.5090
  20342303.900    20342302.960                   106899621.5260   83298453.2090

  22257886.520    22257887.200    22257891.780   116966197.9250   91142615.8550
  87345095.4320
  24584405.220    24584435.620                   129192077.2460  100669259.5380

  22121960.180    22121961.340    22121966.080   116252007.4040   90586060.9360
  86811656.4430
  21059573.060    21059576.720    21059575.880   110668891.3290   86235560.2950
  82642456.6670
  20699559.520    20699561.420    20699562.080   108777172.7200   84761551.0500
  81229842.3760
  25898579.520    25898612.780                   136097475.0720  106049868.9750

 23  3  1 17  0 23.0000000  0 10G07G08G10G16G18G21G23G26G27G31
  24933357.040    24933359.960                   131025680.0990  102097946.5230

  22967394.940    22967399.480    22967399.240   120694554.8390   94047762.3930
  90129162.7840
  22743849.620    22743854.120    22743853.180   119520285.1280   93132983.9120
  89252152.5640
  20342250.080    20342249.140                   106899338.6640   83298232.7980

  22258405.800    22258406.500    22258411.080   116968926.8500   91144742.2890
  87347133.2670
  24583751.800    24583782.180                   129188643.7890  100666584.1750

  22121779.260    22121780.400    22121785.140   116251056.5970   90585320.0500
  86810946.4240
  21059987.860    21059991.500    21059990.680   110671071.0360   86237258.7710
  82644084.3750
  20699328.160    20699330.060    20699330.720   108775956.9100   84760603.6650
  81228934.4680
  25899211.680    25899244.960                   136100797.2870  106052457.7430

 23  3  1 17  0 24.0000000  0 10G07G08G10G16G18G21G23G26G27G31
  24932965.720    24932968.640                   131023623.7360  102096344.1610

  22966917.240    22966921.780    22966921.560   120692044.5530   94045806.3320
  90127288.2290
  22743346.640    22743351.160    22743350.200   119517642.0240   93130924.3540
  89250178.8170
  20342196.360    20342195.420                   106899056.3080   83298012.7810

  22258925.140    22258925.820    22258930.420   116971655.9840   91146868.8880
  87349171.2550
  24583098.400    24583128.760                   129185210.4140  100663908.8630

  22121598.420    22121599.580    22121604.300   116250106.3180   90584579.5770
  86810236.8020
  21060402.720    21060406.360    21060405.520   110673251.1300   86238957.5430
  82645712.3590
  20699096.840    20699098.740    20699099.400   108774741.3230   84759656.4540
  81228026.7240
  25899843.800    25899877.100                   136104119.2210  106055046.2950

 23  3  1 17  0 25.0000000  0 10G07G08G10G16G18G21G23G26G27G31
  24932574.480    24932577.400                   131021567.7740  102094742.1190

  22966439.560    22966444.100    22966443.880   120689534.4040   94043850.3740
  90125413.7630
  22742843.740    22742848.240    22742847.280   119514999.2170   93128865.0300
  89248205.2970
  20342142.720    20342141.780                   106898774.4780   83297793.1750

  22259444.540    22259445.220    22259449.800   116974385.3710   91148995.6800
  87351209.4350
  24582445.040    24582475.420                   129181777.2130  100661233.7270

  22121417.700    22121418.860    22121423.580   116249156.6390   90583839.5670
  86809527.6280
  21060817.660    21060821.300    21060820.460   110675431.6490   86240656.6480
  82647340.6700
  20698865.580    20698867.480    20698868.140   108773526.0090   84758709.4590
  81227119.1850
  25900475.880    25900509.180                   136107440.8810  106057634.6290

 23  3  1 17  0 26.0000000  0 10G07G08G10G16G18G21G23G26G27G31
  24932183.320    24932186.180                   131019512.1590  102093140.3440

  22965961.900    22965966.440    22965966.220   120687024.2730   94041894.4340
  90123539.3210
  22742340.880    22742345.380    22742344.400   119512356.6280   93126805.8720
  89246231.9380
  20342089.180    20342088.240                   106898493.0970   83297573.9150

  22259963.940    22259964.640    22259969.220   116977114.9250   91151122.6060
  87353247.7330
  24581791.680    24581822.040                   129178344.1140  100658558.6500

  22121237.060    22121238.240    22121242.960   116248207.4450   90583099.9360
  86808818.8160
  21061232.660    21061236.300    21061235.460   110677612.4990   86242356.0100
  82648969.2250
  20698634.340    20698636.240    20698636.900   108772310.8710   84757762.6000
  81226211.7770
  25901107.900    25901141.200                   136110762.2920  106060222.7680

 23  3  1 17  0 27.0000000  0 10G07G08G10G16G18G21G23G26G27G31
  24931792.260    24931795.140                   131017457.1120  102091539.0220

  22965484.280    22965488.800    22965488.600   120684514.3630   94039938.6600
  90121665.0360
  22741838.080    22741842.580    22741841.620   119509714.4700   93124747.0510
  89244258.8940
  20342035.760    20342034.820                   106898212.3620   83297355.1630

  22260483.440    22260484.120    22260488.700   116979844.8480   91153249.8180
  87355286.3090
  24581138.380    24581168.740                   129174911.2750  100655883.7870

  22121056.580    22121057.760    22121062.460   116247258.9670   90582360.8660
  86808110.5350
  21061647.780    21061651.400    21061650.580   110679793.9040   86244055.8060
  82650598.1940
  20698403.180    20698405.080    20698405.740   108771096.0940   84756816.0220
  81225304.6480
  25901739.860    25901773.200                   136114083.5350  106062810.7840

 23  3  1 17  0 28.0000000  0 10G07G08G10G16G18G21G23G26G27G31
  24931401.320    24931404.180                   131015402.6160  102089938.1250

  22965006.700    22965011.220    22965011.020   120682004.6920   94037983.0740
  90119790.9350
  22741335.380    22741339.880    22741338.900   119507072.7500   93122688.5710
  89242286.1870
  20341982.460    20341981.540                   106897932.3030   83297136.9370

  22261003.000    22261003.680    22261008.260   116982575.1730   91155377.3420
  87357325.1860
  24580485.140    24580515.500                   129171478.7520  100653209.1340

  22120876.200    22120877.400    22120882.100   116246311.2050   90581622.3520
  86807402.7950
  21062063.000    21062066.620    21062065.780   110681975.8710   86245756.0380
  82652227.5830
  20698172.100    20698174.000    20698174.660   108769881.7550   84755869.7860
  81224397.8320
  25902371.820    25902405.160                   136117404.7360  106065398.7700

 23  3  1 17  0 29.0000000  0 10G07G08G10G16G18G21G23G26G27G31
  24931010.420    24931013.260                   131013348.4940  102088337.5200

  22964529.140    22964533.660    22964533.460   120679495.0840   94036027.5410
  90117916.8830
  22740832.740    22740837.240    22740836.240   119504431.2910   93120630.2910
  89240313.6730
  20341929.260    20341928.340                   106897652.7300   83296919.0860

  22261522.600    22261523.280    22261527.860   116985305.6970   91157505.0230
  87359364.2160
  24579831.960    24579862.320                   129168046.3570  100650534.6120

  22120695.940    22120697.160    22120701.840   116245363.9930   90580884.2670
  86806695.4650
  21062478.280    21062481.900    21062481.060   110684158.2130   86247456.5630
  82653857.2550
  20697941.060    20697942.960    20697943.620   108768667.6130   84754923.7040
  81223491.1760
  25903003.740    25903037.100                   136120725.6270  106067986.5140

 23  3  1 17  0 30.0000000  0 10G07G08G10G16G18G21G23G26G27G31
  24930619.640    24930622.460                   131011294.8390  102086737.2700

  22964051.600    22964056.120    22964055.920   120676985.6020   94034072.1070
  90116042.9310
  22740330.140    22740334.640    22740333.660   119501790.1810   93118572.2870
  89238341.4240
  20341876.160    20341875.260                   106897373.7270   83296701.6830

  22262042.260    22262042.940    22262047.500   116988036.5000   91159632.9180
  87361403.4540
  24579178.800    24579209.120                   129164614.1880  100647860.2530

  22120515.820    22120517.020    22120521.720   116244417.4030   90580146.6670
  86805988.5940
  21062893.660    21062897.280    21062896.440   110686341.0240   86249157.4520
  82655487.2780
  20697710.060    20697711.980    20697712.640   108767453.7890   84753977.8670
  81222584.7450
  25903635.660    25903668.980                   136124046.3760  106070574.1490

 23  3  1 17  0 31.0000000  0 10G07G08G10G16G18G21G23G26G27G31
  24930228.920    24930231.700                   131009241.5570  102085137.3060

  22963574.060    22963578.580    22963578.380   120674476.1810   94032116.7200
  90114169.0200
  22739827.600    22739832.100    22739831.100   119499149.3000   93116514.4620
  89236369.3490
  20341823.180    20341822.260                   106897095.2020   83296484.6500

  22262561.940    22262562.640    22262567.200   116990767.5100   91161760.9760
  87363442.8450
  24578525.640    24578555.960                   129161182.0720  100645185.9150

  22120335.780    22120337.000    22120341.680   116243471.3310   90579409.4700
  86805282.1220
  21063309.100    21063312.720    21063311.880   110688524.1910   86250858.6210
  82657117.5710
  20697479.120    20697481.040    20697481.700   108766240.1680   84753032.1880
  81221678.4730
  25904267.500    25904300.820                   136127366.8410  106073161.5510

 23  3  1 17  0 32.0000000  0 10G07G08G10G16G18G21G23G26G27G31
  24929838.260    24929841.020                   131007188.6830  102083537.6510

  22963096.560    22963101.080    22963100.880   120671966.8830   94030161.4290
  90112295.1960
  22739325.120    22739329.620    22739328.620   119496508.7490   93114456.8920
  89234397.5070
  20341770.280    20341769.360                   106896817.2210   83296268.0420

  22263081.680    22263082.380    22263086.940   116993498.7730   91163889.2340
  87365482.4280
  24577872.520    24577902.820                   129157750.1350  100642511.7230

  22120155.860    22120157.100    22120161.760   116242525.8690   90578672.7480
  86804576.0870
  21063724.620    21063728.260    21063727.420   110690707.8060   86252560.1390
  82658748.1840
  20697248.240    20697250.140    20697250.800   108765026.8270   84752086.7300
  81220772.4030
  25904899.300    25904932.620                   136130687.0400  106075748.7500

 23  3  1 17  0 33.0000000  0 10G07G08G10G16G18G21G23G26G27G31
  24929447.720    24929450.460                   131005136.3400  102081938.4270

  22962619.080    22962623.580    22962623.400   120669457.7670   94028206.2780
  90110421.5190
  22738822.720    22738827.200    22738826.200   119493868.6010   93112399.6400
  89232425.9700
  20341717.500    20341716.580                   106896539.8580   83296051.9170

  22263601.500    22263602.180    22263606.740   116996230.3850   91166017.7630
  87367522.2700
  24577219.460    24577249.740                   129154318.4780  100639837.7650

  22119976.080    22119977.300    22119981.960   116241581.0720   90577936.5440
  86803870.5620
  21064140.260    21064143.880    21064143.040   110692891.9320   86254262.0540
  82660379.1860
  20697017.420    20697019.320    20697019.980   108763813.8260   84751141.5360
  81219866.6000
  25905531.060    25905564.380                   136134007.1690  106078335.8860

 23  3  1 17  0 34.0000000  0 10G07G08G10G16G18G21G23G26G27G31
  24929057.340    24929060.060                   131003084.7630  102080339.7960

  22962141.700    22962146.200    22962146.020   120666949.1130   94026251.4820
  90108548.1630
  22738320.440    22738324.920    22738323.920   119491229.0760   93110342.8710
  89230454.9040
  20341664.880    20341663.960                   106896263.3560   83295836.4630

  22264121.420    22264122.100    22264126.660   116998962.5700   91168146.7380
  87369562.5340
  24576566.500    24576596.760                   129150887.3390  100637164.1810

  22119796.460    22119797.700    22119802.340   116240637.1940   90577201.0550
  86803165.7100
  21064556.020    21064559.640    21064558.800   110695076.8080   86255964.5520
  82662010.7430
  20696786.700    20696788.600    20696789.260   108762601.4240   84750196.8050
  81218961.2310
  25906162.800    25906196.140                   136137327.3090  106080923.0260

 23  3  1 17  0 35.0000000  0 10G07G08G10G16G18G21G23G26G27G31
  24928667.120    24928669.860                   131001034.2250  102078741.9720

  22961664.460    22961668.940    22961668.780   120664441.1860   94024297.2600
  90106675.3730
  22737818.320    22737822.820    22737821.800   119488590.4830   93108286.8290
  89228484.5320
  20341612.480    20341611.580                   106895988.0060   83295621.9040

  22264641.500    22264642.180    22264646.740   117001695.6430   91170276.4080
  87371603.4630
  24575913.660    24575943.920                   129147456.9860  100634491.2380

  22119617.060    22119618.300    22119622.960   116239694.5140   90576466.5010
  86802461.7770
  21064972.000    21064975.620    21064974.760   110697262.7370   86257667.8760
  82663643.0970
  20696556.160    20696558.060    20696558.720   108761389.9170   84749252.7780
  81218056.5400
  25906794.700    25906828.000                   136140647.9420  106083510.5670

 23  3  1 17  0 36.0000000  0 10G07G08G10G16G18G21G23G26G27G31
  24928276.920    24928279.660                   130998983.7990  102077144.2370

  22961187.180    22961191.660    22961191.480   120661933.0500   94022342.8680
  90104802.4140
  22737316.220    22737320.700    22737319.700   119485951.8900   93106230.7880
  89226514.1560
  20341560.120    20341559.220                   106895712.8890   83295407.5270

  22265161.560    22265162.240    22265166.820   117004428.6450   91172406.0160
  87373644.3400
  24575260.800    24575291.060                   129144026.4440  100631818.1350

  22119437.720    22119438.980    22119443.620   116238752.1180   90575732.1690
  86801758.0390
  21065387.980    21065391.600    21065390.760   110699448.7660   86259371.2750
  82665275.5210
  20696325.600    20696327.520    20696328.180   108760178.3580   84748308.7080
  81217151.8050
  25907426.440    25907459.760                   136143967.9580  106086097.6190

 23  3  1 17  0 37.0000000  0 10G07G08G10G16G18G21G23G26G27G31
  24927886.740    24927889.460                   130996933.3210  102075546.4540

  22960709.840    22960714.280    22960714.120   120659424.5270   94020388.1810
  90102929.1720
  22736814.080    22736818.560    22736817.540   119483313.1350   93104174.6150
  89224543.6550
  20341507.780    20341506.880                   106895437.8170   83295193.1850

  22265681.600    22265682.280    22265686.840   117007161.4260   91174535.4560
  87375685.0470
  24574607.900    24574638.160                   129140595.6280  100629144.8030

  22119258.400    22119259.660    22119264.300   116237809.8240   90574997.9140
  86801054.3770
  21065803.960    21065807.580    21065806.720   110701634.7480   86261074.6360
  82666907.9060
  20696095.000    20696096.920    20696097.580   108758966.5840   84747364.4680
  81216246.9060
  25908058.100    25908091.400                   136147287.3430  106088684.1800

 23  3  1 17  0 38.0000000  0 10G07G08G10G16G18G21G23G26G27G31
  24927496.580    24927499.320                   130994883.2140  102073948.9720

  22960232.460    22960236.940    22960236.780   120656916.0670   94018433.5390
  90101055.9760
  22736312.000    22736316.480    22736315.460   119480674.6440   93102118.6530
  89222573.3580
  20341455.520    20341454.620                   106895163.2330   83294979.2260

  22266201.680    22266202.340    22266206.920   117009894.3970   91176665.0410
  87377725.9090
  24573955.000    24573985.260                   129137164.9340  100626471.5930

  22119079.200    22119080.460    22119085.080   116236868.0720   90574264.0830
  86800351.1260
  21066220.020    21066223.640    21066222.780   110703821.1060   86262778.2890
  82668540.5740
  20695864.460    20695866.380    20695867.020   108757755.0300   84746420.4050
  81215342.1750
  25908689.680    25908722.960                   136150606.4360  106091270.4990

 23  3  1 17  0 39.0000000  0 10G07G08G10G16G18G21G23G26G27G31
  24927106.540    24927109.280                   130992833.6630  102072351.9110

  22959755.160    22959759.640    22959759.480   120654407.8340   94016479.0760
  90099182.9520
  22735810.000    22735814.460    22735813.440   119478036.6010   93100063.0370
  89220603.3980
  20341403.400    20341402.500                   106894889.3270   83294765.7910

  22266721.820    22266722.480    22266727.060   117012627.7690   91178794.9440
  87379767.0600
  24573302.200    24573332.440                   129133734.5540  100623798.6340

  22118900.120    22118901.380    22118906.000   116235927.0420   90573530.8150
  86799648.4090
  21066636.180    21066639.800    21066638.940   110706008.0310   86264482.3860
  82670173.6690
  20695633.980    20695635.900    20695636.560   108756543.8730   84745476.6460
  81214437.7430
  25909321.220    25909354.520                   136153925.4480  106093856.7580

 23  3  1 17  0 40.0000000  0 10G07G08G10G16G18G21G23G26G27G31
  24926716.620    24926719.360                   130990784.6220  102070755.2680

  22959277.900    22959282.380    22959282.200   120651899.7740   94014524.7430
  90097310.0480
  22735308.060    22735312.540    22735311.520   119475398.9490   93098007.7270
  89218633.7210
  20341351.400    20341350.500                   106894616.0310   83294552.8350

  22267242.020    22267242.680    22267247.260   117015361.4540   91180925.0860
  87381808.4490
  24572649.380    24572679.660                   129130304.3880  100621125.8340

  22118721.160    22118722.440    22118727.040   116234986.6620   90572798.0550
  86798946.1810
  21067052.420    21067056.040    21067055.180   110708195.4420   86266186.8600
  82671807.1230
  20695403.560    20695405.480    20695406.140   108755333.0500   84744533.1470
  81213533.5570
  25909952.760    25909986.000                   136157244.2320  106096442.8560

 23  3  1 17  0 41.0000000  0 10G07G08G10G16G18G21G23G26G27G31
  24926326.820    24926329.560                   130988736.0990  102069159.0250

  22958800.660    22958805.160    22958804.960   120649391.9370   94012570.5910
  90095437.3160
  22734806.200    22734810.680    22734809.660   119472761.7250   93095952.7520
  89216664.3670
  20341299.520    20341298.620                   106894343.3770   83294340.3770

  22267762.300    22267762.960    22267767.520   117018095.5230   91183055.5290
  87383850.1210
  24571996.660    24572026.900                   129126874.5340  100618453.2600

  22118542.360    22118543.640    22118548.220   116234047.0060   90572065.8560
  86798244.4840
  21067468.780    21067472.400    21067471.540   110710383.4020   86267891.7650
  82673440.9880
  20695173.220    20695175.140    20695175.800   108754122.6180   84743589.9560
  81212629.6690
  25910584.240    25910617.500                   136160562.9390  106099028.8990

 23  3  1 17  0 42.0000000  0 10G07G08G10G16G18G21G23G26G27G31
  24925937.100    24925939.880                   130986688.1780  102067563.2520

  22958323.480    22958327.980    22958327.800   120646884.3570   94010616.6390
  90093564.7850
  22734304.440    22734308.920    22734307.900   119470124.9580   93093898.1310
  89214695.3690
  20341247.760    20341246.880                   106894071.4280   83294128.4690

  22268282.660    22268283.300    22268287.880   117020829.9990   91185186.2880
  87385892.0960
  24571344.020    24571374.260                   129123445.0060  100615780.9550

  22118363.680    22118364.960    22118369.560   116233108.0860   90571334.2340
  86797543.3540
  21067885.260    21067888.880    21067888.000   110712571.9590   86269597.1310
  82675075.2980
  20694942.960    20694944.900    20694945.560   108752912.6230   84742647.1020
  81211726.1010
  25911215.760    25911249.020                   136163881.6490  106101614.9430

 23  3  1 17  0 43.0000000  0 10G07G08G10G16G18G21G23G26G27G31
  24925547.460    24925550.220                   130984640.7050  102065967.8150

  22957846.320    22957850.820    22957850.640   120644376.9060   94008662.7850
  90091692.3400
  22733802.760    22733807.220    22733806.200   119467488.5280   93091843.7730
  89212726.6000
  20341196.100    20341195.220                   106893800.0090   83293916.9750

  22268803.060    22268803.700    22268808.280   117023564.7380   91187317.2530
  87387934.2720
  24570691.400    24570721.600                   129120015.6610  100613108.7780

  22118185.120    22118186.400    22118191.000   116232169.7650   90570603.0770
  86796842.6580
  21068301.800    21068305.420    21068304.540   110714760.9390   86271302.8280
  82676709.9260
  20694712.760    20694714.700    20694715.340   108751702.8820   84741704.4490
  81210822.7270
  25911847.200    25911880.460                   136167200.0520  106104200.7460

 23  3  1 17  0 44.0000000  0 10G07G08G10G16G18G21G23G26G27G31
  24925157.920    24925160.680                   130982593.7380  102064372.7730

  22957369.200    22957373.700    22957373.520   120641869.6480   94006709.0790
  90089820.0400
  22733301.140    22733305.600    22733304.560   119464852.4890   93089789.7210
  89210758.1370
  20341144.580    20341143.700                   106893529.2300   83293705.9810

  22269323.540    22269324.180    22269328.740   117026299.8160   91189448.4810
  87389976.7000
  24570038.840    24570069.020                   129116586.5800  100610436.8280

  22118006.700    22118007.980    22118012.560   116231232.1150   90569872.4420
  86796142.4720
  21068718.460    21068722.080    21068721.200   110716950.4330   86273008.9280
  82678344.9400
  20694482.640    20694484.560    20694485.220   108750493.5070   84740762.0810
  81209919.6220
  25912478.660    25912511.900                   136170518.3830  106106786.4980

 23  3  1 17  0 45.0000000  0 10G07G08G10G16G18G21G23G26G27G31
  24924768.480    24924771.240                   130980547.1980  102062778.0710

  22956892.100    22956896.600    22956896.420   120639362.5100   94004755.4670
  90087947.8310
  22732799.560    22732804.040    22732803.000   119462216.7610   93087735.9090
  89208789.9000
  20341093.160    20341092.280                   106893258.9920   83293495.4040

  22269844.040    22269844.700    22269849.260   117029035.1540   91191579.9110
  87392019.3180
  24569386.280    24569416.460                   129113157.6460  100607765.0210

  22117828.380    22117829.680    22117834.240   116230295.0740   90569142.2830
  86795442.7280
  21069135.180    21069138.800    21069137.920   110719140.3640   86274715.3650
  82679980.2740
  20694252.540    20694254.480    20694255.140   108749284.4070   84739819.9250
  81209016.7250
  25913110.060    25913143.280                   136173836.4570  106109372.0410

 23  3  1 17  0 46.0000000  0 10G07G08G10G16G18G21G23G26G27G31
  24924379.080    24924381.820                   130978500.9160  102061183.5860

  22956415.000    22956419.500    22956419.300   120636855.2950   94002801.8000
  90086075.5570
  22732298.020    22732302.500    22732301.440   119459581.1340   93085682.1800
  89206821.7440
  20341041.800    20341040.920                   106892989.0940   83293285.0950

  22270364.580    22270365.220    22270369.780   117031770.5470   91193711.3840
  87394061.9860
  24568733.740    24568763.900                   129109728.7060  100605093.1920

  22117650.140    22117651.440    22117656.000   116229358.4110   90568412.4170
  86794743.2820
  21069551.960    21069555.580    21069554.700   110721330.5240   86276421.9850
  82681615.7830
  20694022.480    20694024.400    20694025.060   108748075.3760   84738877.8270
  81208113.8810
  25913741.380    25913774.560                   136177154.0870  106111957.2440

 23  3  1 17  0 47.0000000  0 10G07G08G10G16G18G21G23G26G27G31
  24923989.740    24923992.440                   130976454.9100  102059589.2980

  22955937.880    22955942.380    22955942.200   120634348.0360   94000848.0980
  90084203.2740
  22731796.500    22731800.980    22731799.940   119456945.6970   93083628.5970
  89204853.7260
  20340990.520    20340989.640                   106892719.5970   83293075.1000

  22270885.120    22270885.760    22270890.340   117034506.0770   91195842.9650
  87396104.7480
  24568081.200    24568111.340                   129106299.7820  100602421.3500

  22117471.980    22117473.280    22117477.840   116228422.2240   90567682.9230
  86794044.1770
  21069968.800    21069972.420    21069971.520   110723520.9910   86278128.8400
  82683251.5190
  20693792.420    20693794.360    20693795.020   108746866.4940   84737935.8410
  81207211.1450
  25914372.600    25914405.840                   136180471.4310  106114542.2300

 23  3  1 17  0 48.0000000  0 10G07G08G10G16G18G21G23G26G27G31
  24923600.540    24923603.240                   130974409.6770  102057995.6120

  22955460.840    22955465.360    22955465.160   120631841.2430   93998894.7540
  90082331.3140
  22731295.120    22731299.600    22731298.540   119454310.8930   93081575.5050
  89202886.1780
  20340939.400    20340938.540                   106892450.9750   83292865.7830

  22271405.800    22271406.420    22271411.000   117037242.1790   91197974.9950
  87398147.9350
  24567428.740    24567458.900                   129102871.3710  100599749.9450

  22117294.000    22117295.300    22117299.860   116227486.9400   90566954.1330
  86793345.7570
  21070385.760    21070389.380    21070388.500   110725712.1990   86279836.2750
  82684887.8110
  20693562.480    20693564.440    20693565.080   108745658.1960   84736994.3120
  81206308.8460
  25915003.840    25915037.040                   136183788.8030  106117127.2370

 23  3  1 17  0 49.0000000  0 10G07G08G10G16G18G21G23G26G27G31
  24923211.440    24923214.140                   130972364.8610  102056402.2360

  22954983.840    22954988.340    22954988.160   120629334.5460   93996941.4860
  90080459.4440
  22730793.800    22730798.280    22730797.220   119451676.4180   93079522.6690
  89200918.8870
  20340888.380    20340887.520                   106892182.8920   83292656.8890

  22271926.520    22271927.140    22271931.720   117039978.5470   91200107.2280
  87400191.3290
  24566776.340    24566806.500                   129099443.2170  100597078.7200

  22117116.140    22117117.460    22117121.980   116226552.2610   90566225.8140
  86792647.7860
  21070802.820    21070806.440    21070805.540   110727903.8510   86281544.0560
  82686524.4340
  20693332.620    20693334.560    20693335.220   108744450.1840   84736053.0070
  81205406.7650
  25915635.060    25915668.260                   136187106.0080  106119712.1100

 23  3  1 17  0 50.0000000  0 10G07G08G10G16G18G21G23G26G27G31
  24922822.420    24922825.120                   130970320.5260  102054809.2560

  22954506.860    22954511.380    22954511.180   120626828.0100   93994988.3410
  90078587.6800
  22730292.540    22730297.020    22730295.960   119449042.3100   93077470.1220
  89198951.8620
  20340837.480    20340836.620                   106891915.4030   83292448.4560

  22272447.280    22272447.900    22272452.480   117042715.1960   91202239.6800
  87402234.9380
  24566124.000    24566154.100                   129096015.1920  100594407.5620

  22116938.400    22116939.720    22116944.240   116225618.2180   90565497.9900
  86791950.2910
  21071219.980    21071223.600    21071222.700   110730095.9760   86283252.2050
  82688161.4120
  20693102.800    20693104.740    20693105.400   108743242.4770   84735111.9360
  81204504.9040
  25916266.260    25916299.460                   136190423.0070  106122296.8160

 23  3  1 17  0 51.0000000  0 10G07G08G10G16G18G21G23G26G27G31
  24922433.480    24922436.160                   130968276.5850  102053216.5710

  22954029.880    22954034.420    22954034.220   120624321.5680   93993035.2770
  90076715.9820
  22729791.340    22729795.820    22729794.760   119446408.4790   93075417.7900
  89196985.0360
  20340786.680    20340785.820                   106891648.4180   83292240.4160

  22272968.100    22272968.720    22272973.280   117045452.0900   91204372.3240
  87404278.7110
  24565471.640    24565501.720                   129092587.3220  100591736.5430

  22116760.760    22116762.080    22116766.600   116224684.7350   90564770.6040
  86791253.2050
  21071637.200    21071640.820    21071639.920   110732288.5050   86284960.6680
  82689798.6810
  20692873.020    20692874.960    20692875.620   108742035.0230   84734171.0620
  81203603.2300
  25916897.400    25916930.560                   136193739.7520  106124881.3270

 23  3  1 17  0 52.0000000  0 10G07G08G10G16G18G21G23G26G27G31
  24922044.600    24922047.340                   130966233.0910  102051624.2300

  22953552.940    22953557.460    22953557.260   120621815.2260   93991082.2880
  90074844.3670
  22729290.200    22729294.660    22729293.600   119443774.9550   93073365.6970
  89195018.4530
  20340735.980    20340735.120                   106891381.9640   83292032.7910

  22273488.940    22273489.580    22273494.160   117048189.2300   91206505.1610
  87406322.6790
  24564819.340    24564849.400                   129089159.6460  100589065.6620

  22116583.240    22116584.560    22116589.060   116223751.8500   90564043.6810
  86790556.5660
  21072054.500    21072058.120    21072057.220   110734481.4470   86286669.4560
  82691436.2700
  20692643.300    20692645.240    20692645.900   108740827.8330   84733230.3970
  81202701.7590
  25917528.500    25917561.640                   136197056.2990  106127465.6990

 23  3  1 17  0 53.0000000  0 10G07G08G10G16G18G21G23G26G27G31
  24921655.780    24921658.500                   130964189.8570  102050032.0810

  22953076.000    22953080.520    22953080.320   120619308.8760   93989129.2960
  90072972.7490
  22728789.100    22728793.560    22728792.500   119441141.6220   93071313.7540
  89193052.0040
  20340685.360    20340684.500                   106891115.9310   83291825.4920

  22274009.840    22274010.460    22274015.040   117050926.4910   91208638.0890
  87408366.7480
  24564166.980    24564197.060                   129085731.9410  100586394.7810

  22116405.800    22116407.120    22116411.620   116222819.4130   90563317.1060
  86789860.2770
  21072471.860    21072475.480    21072474.580   110736674.6970   86288378.4790
  82693074.0840
  20692413.600    20692415.540    20692416.200   108739620.7750   84732289.8350
  81201800.3880
  25918159.520    25918192.620                   136200372.4760  106130049.7840

 23  3  1 17  0 54.0000000  0 10G07G08G10G16G18G21G23G26G27G31
  24921267.080    24921269.840                   130962147.1670  102048440.3830

  22952599.080    22952603.620    22952603.400   120616802.6450   93987176.3880
  90071101.2260
  22728288.060    22728292.520    22728291.460   119438508.6440   93069262.0870
  89191085.8290
  20340634.840    20340633.980                   106890850.4700   83291618.6400

  22274530.780    22274531.400    22274535.980   117053664.0630   91210771.2620
  87410411.0320
  24563514.740    24563544.840                   129082304.5280  100583724.1470

  22116228.480    22116229.820    22116234.300   116221887.6190   90562591.0370
  86789164.4590
  21072889.320    21072892.940    21072892.020   110738868.4240   86290087.8780
  82694712.2590
  20692183.960    20692185.920    20692186.580   108738414.0380   84731349.5200
  81200899.2570
  25918790.520    25918823.600                   136203688.4880  106132633.7400

 23  3  1 17  0 55.0000000  0 10G07G08G10G16G18G21G23G26G27G31
  24920878.460    24920881.220                   130960105.0080  102046849.0900

  22952122.220    22952126.740    22952126.540   120614296.7000   93985223.7060
  90069229.9010
  22727787.100    22727791.580    22727790.500   119435876.1480   93067210.7950
  89189120.0070
  20340584.460    20340583.600                   106890585.7160   83291412.3400

  22275051.800    22275052.420    22275057.000   117056402.0390   91212904.7480
  87412455.6280
  24562862.520    24562892.620                   129078877.4620  100581053.7900

  22116051.300    22116052.640    22116057.140   116220956.5840   90561865.5560
  86788469.2040
  21073306.880    21073310.500    21073309.580   110741062.7350   86291797.7280
  82696350.8720
  20691954.420    20691956.360    20691957.020   108737207.7340   84730409.5470
  81199998.4460
  25919421.520    25919454.540                   136207004.4360  106135217.6430

 23  3  1 17  0 56.0000000  0 10G07G08G10G16G18G21G23G26G27G31
  24920489.940    24920492.700                   130958063.2930  102045258.1570

  22951645.380    22951649.880    22951649.680   120611790.8390   93983271.0910
  90067358.6510
  22727286.220    22727290.680    22727289.600   119433243.9610   93065159.7420
  89187154.4150
  20340534.180    20340533.320                   106890321.4850   83291206.4460

  22275572.860    22275573.480    22275578.060   117059140.2690   91215038.4320
  87414500.4090
  24562210.360    24562240.460                   129075450.5460  100578383.5410

  22115874.240    22115875.580    22115880.060   116220026.1170   90561140.5190
  86787774.3810
  21073724.520    21073728.140    21073727.220   110743257.4590   86293507.9020
  82697989.7870
  20691724.900    20691726.860    20691727.520   108736001.6930   84729469.7750
  81199097.8310
  25920052.480    25920085.500                   136210320.1140  106137801.3210

 23  3  1 17  0 57.0000000  0 10G07G08G10G16G18G21G23G26G27G31
  24920101.500    24920104.260                   130956022.0900  102043667.6130

  22951168.560    22951173.080    22951172.860   120609285.1800   93981318.6320
  90065487.5380
  22726785.400    22726789.860    22726788.780   119430612.1630   93063108.9940
  89185189.1110
  20340484.020    20340483.160                   106890057.8820   83291001.0410

  22276094.000    22276094.620    22276099.200   117061878.8390   91217172.3800
  87416545.4430
  24561558.240    24561588.340                   129072023.8790  100575713.4500

  22115697.320    22115698.660    22115703.140   116219096.3460   90560416.0260
  86787080.0670
  21074142.260    21074145.880    21074144.960   110745452.7160   86295218.4880
  82699629.0960
  20691495.480    20691497.420    20691498.080   108734796.0010   84728530.2730
  81198197.4770
  25920683.340    25920716.420                   136213635.7260  106140384.9430

 23  3  1 17  0 58.0000000  0 10G07G08G10G16G18G21G23G26G27G31
  24919713.100    24919715.920                   130953981.2260  102042077.3340

  22950691.740    22950696.280    22950696.040   120606779.5080   93979366.1640
  90063616.4220
  22726284.620    22726289.080    22726288.000   119427980.5620   93061058.3980
  89183223.9590
  20340433.940    20340433.080                   106889794.6990   83290795.9650

  22276615.160    22276615.780    22276620.360   117064617.5460   91219306.4390
  87418590.5790
  24560906.140    24560936.220                   129068597.2570  100573043.4350

  22115520.480    22115521.820    22115526.280   116218167.0400   90559691.8940
  86786386.1030
  21074560.060    21074563.680    21074562.760   110747648.2670   86296929.3090
  82701268.6310
  20691266.060    20691268.020    20691268.680   108733590.4620   84727590.8930
  81197297.2400
  25921314.160    25921347.220                   136216951.0150  106142968.2960

 23  3  1 17  0 59.0000000  0 10G07G08G10G16G18G21G23G26G27G31
  24919324.820    24919327.580                   130951940.6720  102040487.2760

  22950214.920    22950219.460    22950219.240   120604273.8650   93977413.7190
  90061745.3270
  22725783.880    22725788.340    22725787.260   119425349.1660   93059007.9620
  89181258.9570
  20340383.940    20340383.100                   106889531.9610   83290591.2320

  22277136.360    22277136.960    22277141.540   117067356.4100   91221440.6170
  87420635.8250
  24560254.060    24560284.120                   129065170.7300  100570373.4850

  22115343.720    22115345.060    22115349.520   116217238.2130   90558968.1320
  86785692.5040
  21074977.940    21074981.540    21074980.620   110749844.1440   86298640.3800
  82702908.4090
  20691036.700    20691038.640    20691039.300   108732385.0980   84726651.6530
