     2.11           OBSERVATION DATA    M (MIXED)           RINEX VERSION / TYPE
NetR9 5.37          Receiver Operator   20230402 185157 UTC PGM / RUN BY / DATE
Map of observations from RINEX 3 to RINEX 2.11              COMMENT
 G: C1C->C1 C2W->P2 C5X->C5 L1C->L1 L2W->L2 L5X->L5         COMMENT
VIGO                                                        MARKER NAME
Area de Geodesia    Instituto Geografico Nacional           OBSERVER / AGENCY
5303K49825          TRIMBLE NETR9       5.37                REC # / TYPE / VERS
5550362313          TRM59900.00     SCIS                    ANT # / TYPE
  4677481.0580  -725205.0810  4260827.1670                  APPROX POSITION XYZ
        0.0000        0.0000        0.0000                  ANTENNA: DELTA H/E/N
     6    C1    P2    C5    L1    L2    L5                  # / TYPES OF OBSERV
    30.000                                                  INTERVAL
  2022    12    25    00    00   00.0000000     GPS         TIME OF FIRST OBS
  2022    12    25    23    59   30.0000000     GPS         TIME OF LAST OBS
    31                                                      # OF SATELLITES
   G01   872   860   872   867   855   872                  PRN / # OF OBS
   G02  1117  1088        1109  1081                        PRN / # OF OBS
   G03   824   817   823   801   797   823                  PRN / # OF OBS
   G04  1024   983  1024  1017   980  1024                  PRN / # OF OBS
   G05   848   837         842   832                        PRN / # OF OBS
   G06   887   874   885   874   861   885                  PRN / # OF OBS
   G07  1101  1071        1093  1065                        PRN / # OF OBS
   G08   865   855   865   856   854   865                  PRN / # OF OBS
   G09   922   875   922   910   868   922                  PRN / # OF OBS
   G10  1114  1098  1113  1109  1096  1113                  PRN / # OF OBS
   G11  1007   972  1006   996   968  1006                  PRN / # OF OBS
   G12   820   801         815   798                        PRN / # OF OBS
   G13   861   823         859   823                        PRN / # OF OBS
   G14  1130  1104  1130  1123  1102  1130                  PRN / # OF OBS
   G15   831   825         831   825                        PRN / # OF OBS
   G16   820   783         812   782                        PRN / # OF OBS
   G17  1055  1053        1047  1046                        PRN / # OF OBS
   G18  1062  1038  1061  1053  1030  1061                  PRN / # OF OBS
   G19  1047  1029        1043  1029                        PRN / # OF OBS
   G20   828   768         818   766                        PRN / # OF OBS
   G21   902   886         899   886                        PRN / # OF OBS
   G22  1074   987        1072   987                        PRN / # OF OBS
   G23  1076  1055  1076  1073  1055  1076                  PRN / # OF OBS
   G24   861   847   861   849   840   861                  PRN / # OF OBS
   G25   841   834   841   839   833   841                  PRN / # OF OBS
   G26   845   841   845   844   841   845                  PRN / # OF OBS
   G27   860   849   860   860   849   860                  PRN / # OF OBS
   G29   962   944         945   932                        PRN / # OF OBS
   G30  1015   962  1015   998   949  1015                  PRN / # OF OBS
   G31   851   844         838   835                        PRN / # OF OBS
   G32  1062  1053  1062  1059  1051  1061                  PRN / # OF OBS
                                                            END OF HEADER
 22 12 25  0  0  0.0000000  0 11G01G07G08G10G14G16G21G23G27G30G32
  21924413.391    21924421.141    21924419.422   115213767.7230   89776865.5880
  86036136.2420
  24784841.539    24784846.535                   130245207.3910  101489789.7530

  20331972.766    20331979.207    20331978.047   106845181.6550   83256113.6970
  79787080.1800
  22380689.219    22380695.355    22380693.363   117611406.3200   91645277.0220
  87826691.5040
  24625043.070    24625047.617    24625050.957   129405453.7690  100835447.6220
  96633951.7260
  24106535.219    24106538.859                   126680691.4020   98712268.1090

  20848465.977    20848469.250                   109559465.9640   85371061.8110

  24854658.727                    24854668.598   130612116.4371
  97535051.2050
  21385005.242    21385011.777    21385011.031   112379102.6290   87568100.9530
  83919403.0390
  25177666.625    25177673.566    25177673.734   132309542.2600  103098364.0780
  98802555.7200
  24544150.695    24544156.664    24544155.914   128980357.7120  100504225.3380
  96316528.6230
 22 12 25  0  0 30.0000000  0 11G01G07G08G10G14G16G21G23G27G30G32
  21909987.648    21909994.906    21909993.395   115137959.3050   89717794.1150
  85979526.0910
  24796494.891    24796499.766                   130306443.0751  101537505.7231

  20332418.391    20332424.930    20332423.750   106847524.0180   83257938.9080
  79788829.3380
  22392642.656    22392649.020    22392646.938   117674223.5920   91694225.5560
  87873600.4910
  24606819.211    24606823.570    24606827.039   129309685.4950  100760822.9640
  96562436.4480
  24127941.664    24127945.984                   126793183.7840   98799924.5150

  20845068.711    20845072.172                   109541614.2020   85357151.3550

  24874063.258                    24874071.805   130714080.3971
  97611193.1220
  21397035.930    21397042.496    21397041.609   112442323.9200   87617364.2800
  83966613.7190
  25183418.391    25183424.703    25183424.781   132339765.3951  103121914.5691
  98825124.9110
  24532088.602    24532094.586    24532094.848   128916972.2180  100454834.0530
  96269195.3710
 22 12 25  0  1  0.0000000  0 11G01G07G08G10G14G16G21G23G27G30G32
  21895614.992    21895622.895    21895621.145   115062432.4950   89658942.0910
  85923126.2440
  24808187.000    24808192.188                   130367891.7720  101585387.8060

  20332937.258    20332943.484    20332942.336   106850249.0470   83260062.3100
  79790864.2690
  22404677.617    22404684.184    22404682.609   117737470.6120   91743508.9420
  87920830.4240
  24588644.211    24588648.254    24588651.387   129214175.7200  100686399.7590
  96491114.2050
  24149365.367    24149370.414                   126905767.9680   98887652.4130

  20841728.453    20841731.738                   109524058.9070   85343471.9250

  24893501.586                    24893509.281   130816222.9691
  97687468.3790
  21409124.664    21409131.012    21409130.375   112505850.1490   87666865.2380
  84014052.1390
  25189250.000    25189256.281    25189256.160   132370409.3811  103145792.9941
  98848008.3600
  24520078.570    24520084.867    24520083.590   128853855.9870  100405652.6070
  96222063.1630
 22 12 25  0  1 30.0000000  0 11G01G07G08G10G14G16G21G23G27G30G32
  21881296.734    21881304.344    21881302.613   114987187.7760   89600309.8700
  85866937.0430
  24819920.352    24819926.031                   130429550.7650  101633433.7200

  20333528.742    20333535.086    20333533.926   106853357.7460   83262484.6750
  79793185.6960
  22416795.328    22416801.020    22416799.609   117801145.3000   91793125.5850
  87968379.7160
  24570518.828    24570523.457    24570526.102   129118927.0500  100612180.0140
  96419986.9190
  24170806.703    24170811.195                   127018441.4610   98975449.9540

  20838443.922    20838447.285                   109506799.4190   85330022.9830

  24912970.391                    24912978.348
  97763875.0030
  21421271.313    21421277.746    21421277.082   112569680.8500   87716603.4370
  84061717.9040
  25195161.578    25195168.004    25195168.043   132401472.0900  103169997.6400
  98871204.5070
  24508119.484    24508126.063    24508124.914   128791011.8170  100356683.1650
  96175134.0770
 22 12 25  0  2  0.0000000  0 10G01G07G08G10G14G16G21G27G30G32
  21867031.406    21867039.645    21867037.902   114912226.1060   89541898.2010
  85810959.1960
  24831693.516    24831699.316                   130491417.5600  101681641.5840

  20334193.102    20334199.805    20334198.602   106856850.7330   83265206.4770
  79795794.0970
  22428993.328    22428998.840    22428997.434   117865245.8670   91843074.0810
  88016247.0110
  24552443.688    24552448.254    24552451.398   129023942.4570  100538166.0050
  96349056.8410
  24192264.055    24192268.516                   127131201.2990   99063314.7540

  20835215.672    20835219.086                   109489835.1580   85316804.0800

  21433475.328    21433482.188    21433481.320   112633815.7510   87766578.6780
  84109610.8640
  25201151.313    25201157.203    25201157.266   132432952.1740  103194527.5450
  98894712.3360
  24496212.625    24496219.141    24496218.652   128728442.7200  100307928.0480
  96128410.4630
 22 12 25  0  2 30.0000000  0 11G01G03G07G08G10G14G16G21G27G30G32
  21852820.656    21852828.988    21852827.063   114837548.2320   89483707.6780
  85755193.2820
  25123409.938    25123418.621    25123418.980   132024363.5491  102876198.7311
  98589660.2171
  24843505.773    24843511.355                   130553489.5370  101730009.3850

  20334931.242    20334937.754    20334936.570   106860728.9030   83268228.4260
  79798690.1360
  22441271.273    22441277.656    22441276.160   117929769.8580   91893352.5220
  88064430.5130
  24534420.219    24534424.668    24534427.180   128929224.7160  100464359.9490
  96278326.0530
  24213737.641    24213742.367                   127244046.1360   99151245.7930

  20832043.867    20832047.082                   109473165.7230   85303814.9210

  21445738.117    21445744.445    21445743.703   112698254.6440   87816790.7920
  84157730.7940
  25207218.930    25207227.359    25207226.531   132464847.7701  103219381.2531
  98918530.4500
  24484359.492    24484365.402    24484364.379   128666151.6200  100259389.5840
  96081894.4250
 22 12 25  0  3  0.0000000  0 11G01G03G07G08G10G14G16G21G27G30G32
  21838663.828    21838672.195    21838670.414   114763154.5480   89425738.5940
  85699639.5860
  25100768.727    25100775.383    25100776.527   131905377.0980  102783482.0661
  98500806.7040
  24855355.586    24855361.977                   130615763.5470  101778534.6090

  20335742.648    20335749.203    20335748.035   106864992.9040   83271551.0210
  79801874.2830
  22453629.961    22453636.199    22453634.289   117994715.4930   91943959.5090
  88112928.8690
  24516447.141    24516451.617    24516455.242   128834776.3140  100390763.8220
  96207796.3720
  24235227.172    24235231.797                   127356973.8590   99239241.4190

  20828927.242    20828930.781                   109456790.1410   85291054.7360

  21458058.164    21458064.539    21458063.633   112762996.8250   87867239.2380
  84206077.2220
  25213367.789    25213375.750    25213375.484   132497156.9571  103244557.1581
  98942657.4080
  24472559.055    24472564.969    24472564.320   128604141.2900  100211069.8580
  96035588.0210
 22 12 25  0  3 30.0000000  0 11G01G03G07G08G10G14G16G21G27G30G32
  21824561.828    21824569.508    21824567.965   114689045.4150   89367991.2500
  85644298.3860
  25078130.055    25078135.906    25078137.645   131786408.7111  102690779.4901
  98411966.6980
  24867244.258    24867250.176                   130678236.7330  101827214.9890

  20336627.711    20336634.141    20336632.992   106869643.3840   83275174.7680
  79805347.0500
  22466068.469    22466074.801    22466073.207   118060080.1170   91994892.9810
  88161740.1230
  24498525.922    24498530.559    24498533.031   128740599.6450  100317379.3850
  96137469.6540
  24256731.789    24256736.230                   127469980.8230   99327298.7930

  20825867.031    20825870.199                   109440707.2870   85278522.6470

  21470436.008    21470442.070    21470441.367   112828041.5960   87917923.4620
  84254649.5960
  25219594.273    25219601.430    25219603.266   132529877.5211  103270053.7671
  98967091.5760
  24460812.508    24460818.789    24460817.660   128542414.1000  100162970.7920
  95989493.0950
 22 12 25  0  4  0.0000000  0 11G01G03G07G08G10G14G16G21G27G30G32
  21810513.500    21810521.316    21810519.438   114615221.0380   89310465.7860
  85589169.8490
  25055493.406    25055500.914    25055502.461   131667460.6700  102598092.6860
  98323141.8600
  24879170.430    24879175.469                   130740905.8440  101876048.1300

  20337586.281    20337592.582    20337591.551   106874680.1900   83279099.5460
  79809108.2960
  22478586.023    22478592.391    22478590.281   118125861.1240   92046150.9050
  88210862.3040
  24480656.609    24480661.465    24480664.879   128646697.2500  100244208.6610
  96067347.6920
  24278250.859    24278254.996                   127583065.2610   99415416.5630

  20822861.703    20822865.355                   109424916.2040   85266217.9190

  21482870.820    21482877.141    21482876.473   112893388.1660   87968842.8620
  84303447.3560
  25225896.547    25225905.703    25225906.668   132563007.5290  103295869.3570
  98991831.5320
  24449120.719    24449126.801    24449125.980   128480972.5700  100115094.2930
  95943611.4630
 22 12 25  0  4 30.0000000  0 11G01G03G07G08G10G14G16G21G27G30G32
  21796519.344    21796527.387    21796525.430   114541682.3080   89253162.9060
  85534254.5770
  25032862.094    25032868.934    25032871.793   131548535.4541  102505410.7611
  98234334.1360
  24891131.625    24891137.414                   130803768.0740  101925031.6630

  20338618.273    20338624.742    20338623.750   106880104.5330   83283326.3060
  79813158.9410
  22491182.602    22491189.230    22491187.004   118192056.7870   92097731.9400
  88260294.1350
  24462842.078    24462845.148    24462848.449   128553071.8510  100171253.7880
  95997432.6340
  24299784.766    24299788.871                   127696224.4090   99503592.4790

  20819912.258    20819915.664                   109409416.2800   85254140.0650

  21495363.367    21495369.797    21495368.555   112959036.2520   88019997.1990
  84352470.2580
  25232279.977    25232288.137    25232288.793   132596544.8071  103322002.3301
  99016875.5600
  24437483.047    24437489.383    24437489.422   128419819.7140  100067442.7370
  95897945.4110
 22 12 25  0  5  0.0000000  0 11G01G03G07G08G10G14G16G21G27G30G32
  21782579.906    21782587.941    21782585.996   114468430.1010   89196083.2950
  85479553.2970
  25010236.672    25010244.207    25010247.125   131429635.9000  102412761.7741
  98145545.4930
  24903131.539    24903136.246                   130866821.0970  101974163.8690

  20339724.703    20339731.066    20339729.930   106885917.7860   83287856.1100
  79817500.0000
  22503858.164    22503864.250    22503862.691   118258665.2770   92149634.6710
  88310034.2420
  24445077.781    24445082.012    24445085.711   128459726.5050  100098517.1920
  95927726.6910
  24321331.953    24321336.219                   127809456.1320   99591824.9960

  20817018.266    20817021.461                   109394207.3350   85242288.9460

  21507913.172    21507919.457    21507918.648   113024985.7180   88071386.3910
  84401718.2370
  25238740.594    25238747.301    25238748.051   132630487.8451  103348451.4261
  99042222.7030
  24425901.875    24425908.227    24425907.672   128358958.6470  100020018.5780
  95852497.2610
 22 12 25  0  5 30.0000000  0 11G01G03G07G08G10G14G16G21G27G30G32
  21768695.234    21768702.969    21768701.113   114395464.7180   89139227.1740
  85425066.1800
  24987616.227                    24987626.309   131310763.9730
  98056777.5370
  24915164.836    24915170.035                   130930061.7030  102023442.2880

  20340904.500    20340911.258    20340910.090   106892119.8700   83292688.8950
  79822131.4260
  22516610.789    22516617.648    22516615.656   118325683.7090   92201856.8110
  88360080.4590
  24427369.375    24427373.164    24427376.648   128366663.5500  100026000.5910
  95858231.6490
  24342891.828    24342896.594                   127922757.7120   99680111.9520

  20814179.125    20814182.578                   109379288.3730   85230663.7900

  21520520.406    21520526.383    21520525.805   113091235.7980   88123009.8170
  84451190.6840
  25245276.008    25245282.109    25245283.945   132664834.4791  103375215.0281
  99067871.1100
  24414376.430    24414382.574    24414381.797   128298391.8120   99972823.6610
  95807268.8120
 22 12 25  0  6  0.0000000  0 11G01G03G07G08G10G14G16G21G27G30G32
  21754864.859    21754872.859    21754870.891   114322786.2020   89082594.5940
  85370793.2830
  24965002.563    24965011.023    24965011.336   131191921.6740  102227545.9321
  97968031.6610
  24927234.344    24927239.855                   130993486.7480  102072864.3990

  20342159.086    20342165.496    20342164.293   106898710.7410   83297824.6330
  79827053.1790
  22529441.906    22529447.910    22529446.484   118393109.6440   92254396.5000
  88410431.0000
  24409712.563    24409717.910    24409721.574   128273885.2470   99953705.8210
  95788949.1240
  24364465.805    24364470.668                   128036127.3500   99768451.9220

  20811395.125    20811398.336                   109364657.9740   85219263.4840

  21533184.055    21533190.582    21533189.672   113157785.4670   88174866.6910
  84500886.8630
  25251887.680    25251895.277    25251896.305   132699582.3641  103402291.2551
  99093819.1660
  24402907.672    24402914.598    24402912.660   128238121.4940   99925859.8040
  95762261.7480
 22 12 25  0  6 30.0000000  0 11G01G03G07G08G10G14G16G21G27G30G32
  21741089.023    21741097.086    21741095.383   114250395.2680   89026186.0970
  85316735.1570
  24942392.297    24942401.141    24942401.953   131073111.5080  102134966.6300
  97879309.8180
  24939338.859    24939343.438                   131057093.5910  102122428.2290

  20343487.656    20343493.992    20343492.727   106905691.8050   83303264.4230
  79832266.3020
  22542350.055    22542356.043    22542354.367   118460941.2830   92307252.3250
  88461084.5000
  24392112.281    24392117.355    24392121.160   128181394.3400   99881635.0020
  95719881.2370
  24386051.820    24386056.184                   128149561.9440   99856842.5430

  20808666.438    20808669.145                   109350315.6730   85208087.6800

  21545904.922    21545911.320    21545910.742   113224634.3880   88226956.7520
  84550806.4860
  25258576.016    25258583.785    25258584.129   132734729.5611  103429678.6591
  99120065.4840
  24391495.266    24391501.801    24391501.125   128178150.5160   99879129.2180
  95717478.2770
 22 12 25  0  7  0.0000000  0 11G01G03G07G08G10G14G16G21G27G30G32
  21727368.430    21727376.090    21727374.750   114178293.1930   88970002.6910
  85262892.7310
  24919790.422    24919798.852    24919800.316   130954336.5350  102042414.6950
  97790614.2430
  24951476.516    24951482.121                   131120880.0610  102172131.8790

  20344890.406    20344896.859    20344895.641   106913063.8370   83309008.8600
  79837771.3890
  22555334.508    22555340.855    22555339.055   118529176.4900   92360422.6160
  88512039.3530
  24374567.609    24374572.066    24374576.250   128089194.1560   99809790.7090
  95651030.4900
  24407649.719    24407654.582                   128263059.8610   99945282.4410

  20805991.539    20805994.516                   109336261.3070   85197136.2290

  21558682.688    21558689.535    21558688.492   113291782.6640   88279280.0770
  84600949.6900
  25265340.211                    25265348.945   132770274.7381
  99146608.9250
  24380140.453    24380147.441    24380146.758   128118482.4280   99832634.5970
  95672920.9560
 22 12 25  0  7 30.0000000  0 11G01G03G07G08G10G14G16G21G27G30G32
  21713703.281    21713710.621    21713709.254   114106480.2240   88914044.5570
  85209266.2020
  24897196.445    24897203.723    24897204.551   130835598.9030  101949891.8820
  97701946.5350
  24963647.805    24963654.266                   131184842.9840  102221973.1450

  20346367.766    20346374.270    20346373.066   106920827.8160   83315058.7160
  79843569.1720
  22568395.688    22568401.914    22568400.199   118597813.3380   92413905.8750
  88563294.1520
  24357077.117    24357082.613    24357086.973   127997287.2670   99738174.9730
  95582398.7390
  24429259.203    24429263.863                   128376618.3300  100033769.5580

  20803371.727    20803374.828                   109322493.8920   85186408.3730

  21571517.758    21571523.969    21571523.215   113359229.6360   88331836.1480
  84651315.9200
  25272180.719    25272187.430    25272188.164   132806215.6721  103485379.0861
  99173447.9310
  24368844.828    24368851.313    24368850.566   128059119.6100   99786377.8700
  95628591.6110
 22 12 25  0  8  0.0000000  0 11G01G03G07G08G10G14G16G21G27G30G32
  21700092.680    21700100.129    21700098.746   114034957.0770   88858312.2680
  85155856.0960
  24874607.539    24874615.867    24874617.531   130716901.0770  101857400.0890
  97613308.5750
  24975852.063    24975858.637                   131248979.6120  102271949.7140

  20347919.828    20347926.395    20347925.305   106928984.5620   83321414.6200
  79849660.2400
  22581532.836    22581539.250    22581537.484   118666849.5680   92467700.3400
  88614847.1580
  24339644.781    24339649.949    24339653.895   127905676.2530   99666789.7850
  95513987.9430
  24450880.344    24450884.184                   128490236.0470  100122302.8110

  20800806.188    20800809.465                   109309012.8820   85175903.6870

  21584409.016    21584415.473    21584414.641   113426974.8550   88384624.6320
  84701904.8780
  25279096.055    25279102.105    25279102.199   132842550.6040  103513691.9630
  99200581.1380
  24357606.430    24357613.113    24357611.430   128000065.0070   99740361.3190
  95584492.3990
 22 12 25  0  8 30.0000000  0 11G01G03G07G08G10G14G16G21G27G30G32
  21686537.172    21686544.914    21686543.418   113963723.8200   88802805.8610
  85102662.4570
  24852028.859    24852035.930    24852037.777   130598245.1160  101764940.8750
  97524701.8890
  24988091.398    24988095.188                   131313286.6640  102322059.1470

  20349546.797    20349553.266    20349552.191   106937533.9150   83328076.4480
  79856044.4990
  22594745.680    22594751.832    22594749.750   118736282.3000   92521803.7680
  88666696.2930
  24322268.359    24322273.145    24322277.277   127814363.5640   99595637.0530
  95445799.8990
  24472510.914    24472515.691                   128603909.7840  100210879.7950

  20798295.086    20798298.449                   109295816.8710   85165621.0760

  21597356.813    21597363.430    21597362.586   113495017.3290   88437644.7290
  84752715.8140
  25286083.703    25286091.059    25286090.984   132879277.0091  103542309.8761
  99228006.6210
  24346427.742    24346433.836    24346433.715   127941320.8530   99694586.6750
  95540625.0290
 22 12 25  0  9  0.0000000  0 11G01G03G07G08G10G14G16G21G27G30G32
  21673037.367    21673044.848    21673043.324   113892780.9330   88747525.7150
  85049685.6730
  24829457.531    24829464.625    24829466.633   130479633.3800  101672516.1760
  97436128.1660
  25000358.586    25000363.934                   131377761.1150  102372298.9360

  20351248.258    20351254.754    20351253.797   106946475.7800   83335044.1310
  79862721.8700
  22608033.328    22608039.289    22608037.531   118806109.2900   92576214.4150
  88718839.8200
  24304950.508    24304954.586    24304958.555   127723351.7460   99524718.7740
  95377836.5590
  24494152.578    24494157.141                   128717636.6870  100299498.1290

  20795838.273    20795841.477                   109282905.3130   85155560.1280

  21610361.953    21610367.910    21610367.000   113563356.5220   88490896.0470
  84803748.3090
  25293146.469    25293153.875    25293154.262   132916392.6001  103571231.1671
  99255722.8280
  24335309.000    24335315.816    24335314.547   127882889.7560   99649055.9620
  95496991.4520
 22 12 25  0  9 30.0000000  0 11G01G03G07G08G10G14G16G21G27G30G32
  21659592.648    21659600.105    21659598.750   113822128.6080   88692471.9840
  84996925.8520
  24806895.070    24806902.621    24806904.008   130361067.8250  101580127.4820
  97347588.9930
  25012660.336    25012665.094                   131442399.9460  102422666.8070

  20353024.898    20353031.340    20353030.270   106955811.2110   83342318.4940
  79869693.1230
  22621395.164    22621401.949    22621399.465   118876327.9380   92630930.2500
  88771275.8200
  24287688.211    24287692.969    24287697.055   127632643.0040   99454036.6270
  95310099.5050
  24515803.836    24515807.879                   128831414.5870  100388156.2030

  20793434.844    20793438.355                   109270276.9440   85145719.8510

  21623422.258    21623428.902    21623427.945   113631991.4420   88544377.7890
  84855001.6580
  25300282.742    25300290.164    25300290.875   132953895.2390  103600453.9550
  99283728.0700
  24324250.328    24324256.328    24324256.121   127824774.0380   99603771.0450
  95453593.4030
 22 12 25  0 10  0.0000000  0 11G01G03G07G08G10G14G16G21G27G30G32
  21646203.461    21646210.758    21646209.359   113751767.4690   88637645.1480
  84944383.4720
  24784343.250    24784349.777    24784351.309   130242551.0500  101487776.8010
  97259086.2350
  25024990.523    25024996.297                   131507200.4160  102473160.7700

  20354876.047    20354882.801    20354881.820   106965540.8470   83349900.0190
  79876958.7600
  22634831.469    22634838.059    22634835.910   118946936.1670   92685949.6490
  88824002.7420
  24270485.813    24270489.289    24270493.734   127542240.1740   99383592.8610
  95242590.9090
  24537465.258    24537468.398                   128945241.2000  100476852.3100

  20791085.547    20791089.070                   109257931.2580   85136099.8310

  21636539.492    21636545.883    21636545.047   113700921.7930   88598089.7500
  84906475.6250
  25307494.188    25307500.047    25307498.949   132991782.8030  103629976.7760
  99312020.7190
  24313252.070    24313257.957    24313256.895   127766976.6320   99558734.1140
  95410433.0310
 22 12 25  0 10 30.0000000  0 11G01G03G07G08G10G14G16G21G27G30G32
  21632870.164    21632877.145    21632875.496   113681698.0600   88583045.6270
  84892058.9390
  24761797.852    24761806.758    24761807.832   130124085.4330  101395465.9380
  97170621.7070
  25037351.852    25037357.723                   131572159.7810  102523778.4430

  20356802.828    20356809.551    20356808.336   106975665.2460   83357789.1590
  79884519.1920
  22648341.953    22648348.039    22648346.020   119017931.8260   92741270.9430
  88877018.9970
  24253341.328    24253345.277    24253349.512   127452145.9550   99313389.5540
  95175312.7410
  24559134.609    24559138.047                   129059113.6680  100565584.0790

  20788789.922    20788793.516                   109245867.3180   85126699.3530

  21649713.375    21649719.238    21649717.918   113770146.9550   88652031.4210
  84958169.7180
  25314776.469    25314782.352    25314783.488   133030053.3450  103659797.9450
  99340599.2950
  24302314.148    24302320.344    24302320.020   127709500.1530   99513947.2790
  95367512.3320
 22 12 25  0 11  0.0000000  0 11G01G03G07G08G10G14G16G21G27G30G32
  21619591.547    21619599.023    21619597.387   113611920.9870   88528673.9050
  84839952.7120
  24739266.102    24739273.723    24739275.633   130005673.4470  101303196.9100
  97082197.2250
  25049742.336    25049749.070                   131637274.8900  102574517.4790

  20358804.797    20358811.289    20358810.199   106986185.0490   83365986.4130
  79892374.8800
  22661924.781    22661931.262    22661929.105   119089312.5490   92796892.2900
  88930322.7810
  24236256.367    24236260.633    24236263.969   127362363.0480   99243428.8450
  95108267.0700
  24580812.336    24580815.516                   129173030.3660  100654350.3450

  20786547.477    20786551.285                   109234084.3200   85117517.8070

  21662942.016    21662948.203    21662947.219   113839666.3960   88706202.4100
  85010083.5830
  25322130.742    25322137.852    25322137.219   133068704.4140  103689915.5960
  99369462.0900
  24291438.641    24291444.266    24291443.535   127652347.3640   99469412.6900
  95324833.3250
 22 12 25  0 11 30.0000000  0 11G01G03G07G08G10G14G16G21G27G30G32
  21606369.148    21606376.598    21606374.992   113542436.8260   88474530.4350
  84788065.2100
  24716744.000    24716751.945    24716752.797   129887317.6080  101210971.6400
  96993814.6930
  25062162.609    25062168.555                   131702543.3710  102625376.0440

  20360881.984    20360888.613    20360887.328   106997101.1090   83374492.4240
  79900526.4800
  22675581.078    22675587.488    22675585.301   119161076.1060   92852811.9510
  88983912.4500
  24219230.961    24219234.934    24219238.563   127272894.2220   99173712.8790
  95041455.9190
  24602497.055    24602501.695                   129286988.6260  100743149.0050

  20784358.586    20784362.383                   109222582.2120   85108555.1350

  21676226.578    21676232.969    21676232.270   113909479.7220   88760602.3980
  85062216.8960
  25329558.523    25329565.051    25329565.449   133107734.4420  103720328.7280
  99398607.8880
  24280624.555    24280630.910    24280630.512   127595521.0570   99425132.4830
  95282398.1160
 22 12 25  0 12  0.0000000  0 11G01G03G07G08G10G14G16G21G27G30G32
  21593202.289    21593209.895    21593208.410   113473245.8490   88420615.4080
  84736396.6630
  24694232.648    24694240.680    24694241.906   129769020.2070  101118791.8730
  96905475.7440
  25074610.938    25074617.820                   131767962.2010  102676351.8270

  20363034.492    20363041.141    20363040.047   107008413.2110   83383307.0520
  79908973.8210
  22689309.852    22689316.387    22689314.074   119233220.3160   92909028.2220
  89037786.3780
  24202265.148    24202269.625    24202273.301   127183741.8790   99104243.4910
  94974881.0980
  24624189.922    24624194.734                   129400986.4770  100831978.4860

  20782223.266    20782226.879                   109211359.7410   85099810.3540

  21689567.695    21689573.926    21689572.762   113979586.0870   88815230.7290
  85114569.0440
  25337057.477    25337064.000    25337063.910   133147140.8480  103751034.9460
  99428034.7120
  24269873.203    24269879.426    24269878.602   127539023.5370   99381108.4350
  95240208.4660
 22 12 25  0 12 30.0000000  0 11G01G03G07G08G10G14G16G21G27G30G32
  21580091.703    21580099.133    21580097.734   113404348.5280   88366929.2240
  84684947.3960
  24671733.156    24671740.824    24671742.004   129650783.3900  101026659.3500
  96817182.0800
  25087086.648    25087093.996                   131833528.3450  102727442.5040

  20365262.922    20365269.367    20365268.184   107020122.5320   83392431.1920
  79917717.7930
  22703109.898    22703116.270    22703114.707   119305742.2410   92965538.8120
  89091942.3610
  24185361.852    24185365.336    24185368.844   127094908.5450   99035022.7040
  94908544.5130
  24645890.352    24645894.805                   129515020.9530  100920836.4910

  20780141.141    20780144.191                   109200415.9560   85091282.7410

  21702963.906    21702970.121    21702969.563   114049984.8610   88870086.8990
  85167139.5470
  25344627.445    25344634.281    25344633.277   133186921.4690  103782032.7560
  99457740.9770
  24259186.070    24259191.828    24259191.512   127482857.5220   99337342.7380
  95198266.3100
 22 12 25  0 13  0.0000000  0 11G01G03G07G08G10G14G16G21G27G30G32
  21567036.977    21567044.125    21567042.898   113335744.8820   88313471.8460
  84633717.4290
  24649244.625    24649252.633    24649254.238   129532609.3880  100934575.6930
  96728935.2590
  25099594.094    25099598.527                   131899238.5720  102778645.0490

  20367566.680    20367573.016    20367571.918   107032228.7790   83401864.6280
  79926758.1880
  22716981.867    22716988.656    22716986.266   119378639.7190   93022342.0460
  89146378.7950
  24168517.320    24168522.508    24168525.867   127006396.5420   98966052.3170
  94842447.8890
  24667596.609    24667601.172                   129629089.7870  101009721.2800

  20778111.258    20778114.406                   109189749.8290   85082971.4640

  21716415.781    21716422.160    21716421.352   114120675.0840   88925170.1850
  85219927.6960
  25352267.797    25352274.270    25352273.664   133227073.8590  103813320.2480
  99487724.8550
  24248561.258    24248567.191    24248566.547   127427025.2670   99293837.1250
  95156573.4110
 22 12 25  0 13 30.0000000  0 12G01G03G07G08G10G14G16G21G22G27G30G32
  21554038.031    21554045.727    21554044.207   113267436.3290   88260244.4160
  84582707.8060
  24626769.977    24626777.164    24626779.074   129414501.2940  100842543.4260
  96640737.7050
  25112123.922    25112129.207                   131965090.9440  102829958.7570

  20369946.383    20369952.688    20369951.617   107044733.9930   83411608.9440
  79936096.4830
  22730925.758    22730931.625    22730929.469   119451911.1410   93079436.6630
  89201094.4690
  24151736.820    24151740.641    24151744.512   126918209.3450   98897335.0270
  94776593.8240
  24689309.703    24689314.051                   129743191.0890  101098631.3470

  20776134.375    20776137.383                   109179361.2990   85074876.5050

  24826429.156                                   130463743.8891

  21729923.102    21729929.773    21729928.816   114191656.9930   88980480.7540
  85272933.6560
  25359978.531    25359986.000    25359984.504   133267596.5741  103844896.4581
  99517985.3530
  24238001.031    24238006.316    24238005.672   127371530.1950   99250594.1940
  95115132.2810
 22 12 25  0 14  0.0000000  0 12G01G03G07G08G10G14G16G21G22G27G30G32
  21541095.398    21541103.203    21541101.586   113199423.0320   88207247.0580
  84531918.6850
  24604307.383    24604315.199    24604316.566   129296461.2610  100750564.2290
  96552590.9660
  25124681.352    25124687.164                   132031082.2380  102881380.5970

  20372401.680    20372408.328    20372407.250   107057638.0030   83421664.0130
  79945732.5890
  22744938.609    22744945.301    22744943.254   119525553.7470   93136820.5140
  89256087.3300
  24135016.773    24135021.516    24135025.121   126830349.3290   98828872.6790
  94710984.0730
  24711028.477    24711031.777                   129857321.8560  101187564.4190

  20774210.180    20774213.191                   109169249.2870   85066997.0280

  24811954.203                                   130387682.9291

  21743486.211    21743492.445    21743491.414   114262929.7030   89036017.9160
  85326156.7690
  25367760.188    25367766.781    25367764.055   133308487.1390  103876759.1580
  99548520.4280
  24227504.859    24227510.059    24227509.816   127316374.5920   99207615.8270
  95073944.7050
 22 12 25  0 14 30.0000000  0 12G01G03G07G08G10G14G16G21G22G27G30G32
  21528209.352    21528216.871    21528215.316   113131705.3010   88154480.0260
  84481350.2840
  24581858.633    24581865.563    24581867.242   129178491.6020  100658639.8140
  96464496.7700
  25137264.680    25137271.863                   132097209.4460  102932926.2981

  20374933.172    20374939.797    20374938.699   107070940.9350   83432029.9290
  79955666.5820
  22759022.734    22759029.121    22759026.953   119599565.2430   93194491.8120
  89311355.6500
  24118360.641    24118365.172    24118368.613   126742818.9560   98760667.2060
  94645620.4840
  24732751.883    24732755.895                   129971480.3870  101276519.1220

  20772338.234    20772341.328                   109159412.9040   85059332.3150

  24797492.523                                   130311685.3291

  21757104.156    21757110.527    21757109.805   114334492.4200   89091781.0690
  85379596.4500
  25375610.422    25375618.004    25375616.211   133349743.3501  103908906.8011
  99579328.6220
  24217074.797    24217079.828    24217079.520   127261560.9690   99164903.9150
  95033012.4750
 22 12 25  0 15  0.0000000  0 12G01G03G07G08G10G14G16G21G22G27G30G32
  21515379.477    21515386.840    21515385.355   113064283.6950   88101943.7210
  84431002.9820
  24559423.383    24559430.426    24559432.391   129060594.7920  100566772.2220
  96376456.9250
  25149873.977    25149879.367                   132163469.5060  102984557.6210

  20377540.695    20377547.422    20377546.211   107084643.5690   83442707.2980
  79965899.0740
  22773176.398    22773182.625    22773181.074   119673943.2230   93252448.6770
  89366897.6490
  24101767.227    24101771.594    24101775.512   126655620.9410   98692720.6860
  94580505.0600
  24754480.492    24754484.250                   130085664.2330  101365493.5510

  20770518.680    20770521.875                   109149851.7380   85051882.0720

  24783044.234                                   130235754.0001

  21770776.969    21770783.520    21770782.531   114406344.6530   89147769.8150
  85433252.3220
  25383530.797    25383537.461    25383537.348   133391362.9321  103941337.6941
  99610408.2090
  24206709.391    24206714.844    24206714.234   127207092.0180   99122460.5860
  94992337.6200
 22 12 25  0 15 30.0000000  0 12G01G03G07G08G10G14G16G21G22G27G30G32
  21502605.828    21502613.527    21502611.848   112997158.3600   88049638.2780
  84380876.9390
  24537002.320    24537009.684    24537011.527   128942772.8840  100474962.9470
  96288473.0740
  25162507.047                                   132229859.7880

  20380224.703    20380230.926    20380229.848   107098746.1550   83453696.3230
  79976430.2230
  22787399.438    22787405.727    22787403.730   119748685.2360   93310689.2010
  89422711.4700
  24085237.758    24085242.324    24085245.852   126568757.5310   98625034.9400
  94515639.5460
  24776213.359    24776216.941                   130199870.9910  101454485.8230

  20768751.508    20768754.605                   109140564.3280   85044645.1380

  24768607.406                                   130159891.5481

  21784505.117    21784511.582    21784510.438   114478485.4440   89203983.4100
  85487123.6840
  25391518.914    25391526.703    25391525.523   133433343.4590  103974049.7870
  99641757.2950
  24196410.523    24196415.602    24196414.719   127152969.9990   99080287.5780
  94951921.8000
 22 12 25  0 16  0.0000000  0 12G01G03G07G08G10G14G16G21G22G27G30G32
  21489888.578    21489896.355    21489894.844   112930329.8760   87997564.1480
  84330972.5720
  24514596.477    24514604.047    24514605.688   128825028.4760  100383214.0640
  96200547.0540
  25175166.023                                   132296377.4000

  20382984.531    20382990.875    20382989.688   107113249.3410   83464997.5050
  79987260.5260
  22801691.695    22801697.391    22801695.293   119823788.8070   93369211.4740
  89478795.3280
  24068772.156    24068777.625    24068780.578   126482231.5420   98557612.0720
  94451025.9740
  24797949.508    24797954.266                   130314098.0930  101543493.9140

  20767036.117    20767039.320                   109131550.2550   85037621.1930

  24754186.617    24754191.559                   130084101.1290  101364276.4521

  21798288.258    21798294.023    21798293.254   114550914.2940   89260421.4670
  85541210.1540
  25399576.336    25399583.145    25399582.289   133475682.8601  104007041.5601
  99673374.3970
  24186178.180    24186183.758    24186183.137   127099197.5580   99038386.9800
  94911767.0600
 22 12 25  0 16 30.0000000  0 12G01G03G07G08G10G14G16G21G22G27G30G32
  21477228.219    21477236.031    21477234.398   112863798.5830   87945721.5980
  84281290.1270
  24492205.594    24492213.137    24492215.199   128707363.8800  100291527.3130
  96112680.6150
  25187847.125                                   132363019.1821

  20385820.727    20385827.020    20385825.840   107128153.2800   83476610.9650
  79998390.0880
  22816051.805    22816057.477    22816055.969   119899251.8040   93428013.8000
  89535147.5550
  24052371.516    24052376.547    24052380.418   126396045.4110   98490454.0280
  94386666.2080
  24819689.633    24819694.430                   130428343.1760  101632516.0490

  20765372.547    20765375.871                   109122808.6810   85030809.5770

  24739776.375    24739782.613                   130008385.0541  101305276.9621

  21812124.711    21812131.742    21812130.504   114623630.4330   89317083.3810
  85595511.1610
  25407700.195    25407708.500    25407706.305   133518378.5521  104040310.9231
  99705257.5670
  24176011.781    24176017.688    24176017.301   127045777.1630   98996760.7130
  94871875.2210
 22 12 25  0 17  0.0000000  0 12G01G03G07G08G10G14G16G21G22G27G30G32
  21464624.391    21464631.809    21464630.504   112797564.8570   87894110.9240
  84231829.9000
  24469831.688    24469838.305    24469839.668   128589781.4020  100199904.6210
  96024875.5140
  25200551.859                                   132429782.5670

  20388732.852    20388739.648    20388738.336   107143458.7220   83488537.2740
  80009819.4750
  22830479.438    22830485.773    22830483.414   119975071.5150   93487094.0990
  89591766.1540
  24036036.445    24036041.113    24036044.680   126310201.7600   98423562.8980
  94322562.1890
  24841431.656    24841437.613                   130542604.1820  101721550.5730

  20763760.797    20763764.117                   109114338.5660   85024209.4960

  24725384.523    24725388.387                   129932746.1261  101246337.5701

  21826017.375    21826023.457    21826022.602   114696633.1560   89373968.6090
  85650026.1610
  25415892.297    25415900.805    25415898.496   133561428.2370  104073856.1390
  99737405.0030
  24165914.273    24165920.012    24165919.379   126992711.3370   98955410.7190
  94832248.1310
 22 12 25  0 17 30.0000000  0 12G01G03G07G08G10G14G16G21G22G27G30G32
  21452077.602    21452084.758    21452083.305   112731629.2470   87842732.5390
  84182592.2790
  24447471.930    24447478.949    24447480.387   128472283.5430  100108347.8320
  95937133.6530
  25213280.188                                   132496664.4830

  20391722.063    20391728.684    20391727.484   107159166.3550   83500776.9860
  80021549.2030
  22844974.492    22844981.277    22844978.930   120051245.9040   93546450.7510
  89648649.6210
  24019766.500    24019771.148    24019774.996   126224703.2560   98356940.6710
  94258715.9140
  24863179.047    24863183.543                   130656878.3540  101810595.3850

  20762200.336    20762203.805                   109106139.0600   85017820.2620

  24711005.914                                   129857187.3711

  21839963.539    21839970.008    21839968.906   114769921.9730   89431076.7640
  85704754.8090
  25424149.891    25424159.148    25424158.617   133604829.8701  104107675.5991
  99769815.3260
  24155884.375    24155889.891    24155889.371   126940002.7370   98914339.0790
  94792887.8180
 22 12 25  0 18  0.0000000  0 12G01G03G07G08G10G14G16G21G22G27G30G32
  21439586.898    21439594.383    21439592.828   112665991.8710   87791586.5550
  84133577.3930
  24425130.016    24425135.699    24425138.316   128354872.4940  100016858.7510
  95849456.5600
  25226027.828                                   132563661.9550

  20394787.664    20394794.141    20394793.055   107175275.7360   83513329.7490
  80033578.9300
  22859537.297    22859543.457    22859541.801   120127772.2550   93606081.6690
  89705795.9250
  24003562.672    24003567.297    24003571.133   126139552.2230   98290589.2420
  94195129.1030
  24884927.172    24884930.410                   130771163.5620  101899648.7850

  20760691.430    20760694.934                   109098209.0510   85011641.0450

  24696643.297                                   129781711.5980

  21853964.141    21853970.480    21853969.586   114843495.8870   89488407.0730
  85759696.3510
  25432476.477    25432485.445    25432484.109   133648580.8921  104141776.2781
  99802486.5520
  24145922.047    24145927.719    24145927.383   126887653.5350   98873547.4990
  94753795.9050
 22 12 25  0 18 30.0000000  0 12G01G03G07G08G10G14G16G21G22G27G30G32
  21427153.109    21427160.805    21427159.328   112600653.4510   87740673.5240
  84084785.7490
  24402803.164    24402811.066    24402812.480   128237550.8630   99925439.3020
  95761846.2510
  25238799.305                                   132630772.1930

  20397929.891    20397936.254    20397935.199   107191788.0880   83526196.5140
  80045909.5780
  22874166.477    22874172.828    22874170.520   120204648.3140   93665985.0930
  89763203.3680
  23987425.414    23987430.336    23987434.254   126054751.5010   98224510.7600
  94131803.8900
  24906675.250    24906680.129                   130885457.3180  101988708.8560

  20759233.625    20759237.020                   109090548.6130   85005671.8720

  24682297.141    24682301.176                   129706321.9231  101069895.1551

  21868019.086    21868025.211    21868024.645   114917354.4540   89545959.2000
  85814850.4630
  25440868.695    25440875.840    25440874.945   133692679.0830  104176138.6020
  99835417.0970
  24136029.719    24136035.566    24136034.414   126835666.5540   98833038.1630
  94714974.4710
 22 12 25  0 19  0.0000000  0 11G01G03G08G10G14G16G21G22G27G30G32
  21414776.789    21414784.320    21414782.500   112535614.0500   87689993.4910
  84036217.3880
  24380495.758    24380502.684    24380504.219   128120320.7400   99834091.1700
  95674304.2960
  20401148.891    20401155.078    20401153.973   107208703.0950   83539377.0340
  80058540.9070
  22888860.906    22888867.754    22888865.715   120281871.7910   93726159.2280
  89820870.2560
  23971356.156    23971359.910    23971364.371   125970303.3970   98158707.0350
  94068742.0040
  24928425.797    24928430.512                   130999757.4270  102077773.8760

  20757826.945    20757830.465                   109083156.5860   84999911.8630

  24667967.352    24667972.164                   129631020.6170  101011218.8350

  21882128.039    21882134.137    21882133.285   114991496.7220   89603732.3880
  85870216.4450
  25449325.898    25449333.418    25449332.848   133737121.8221  104210769.1711
  99868604.7510
  24126205.414    24126212.031    24126211.332   126784043.9520   98792812.7650
  94676425.1240
 22 12 25  0 19 30.0000000  0 12G01G03G07G08G10G14G16G21G22G27G30G32
  21402457.031    21402464.813    21402462.957   112470874.4350   87639547.0580
  83987872.8880
  24358205.383    24358212.387    24358213.828   128003184.9620   99742816.5540
  95586832.7660
  25264402.227                                   132765313.9911

  20404444.609    20404450.805    20404449.781   107226022.3890   83552872.5870
  80071474.1550
  22903622.227    22903628.375    22903626.742   120359440.3940   93786602.2880
  89878794.8420
  23955353.250    23955358.051    23955361.859   125886210.7420   98093180.2760
  94005945.5410
  24950176.813    24950182.020                   131114061.3340  102166841.8000

  20756471.844    20756474.750                   109076032.1780   84994360.3730

  24653656.141    24653659.809                   129555811.2180  100952614.1860

  21896290.758    21896296.938    21896296.133   115065922.3280   89661726.3520
  85925793.9880
  25457847.523    25457855.738    25457856.098   133781907.3450  104245667.0310
  99902048.3640
  24116452.461    24116458.840    24116458.023   126732788.6180   98752873.5580
  94638150.0330
 22 12 25  0 20  0.0000000  0 12G01G03G07G08G10G14G16G21G22G27G30G32
  21390194.625    21390202.199    21390200.527   112406434.7590   87589334.3370
  83939752.3590
  24335933.609    24335940.660    24335942.293   127886145.4980   99651616.9810
  95499433.2250
  25277234.523                                   132832746.0611

  20407816.531    20407823.492    20407822.375   107243745.5140   83566682.8090
  80084708.9480
  22918448.734    22918454.922    22918452.430   120437351.4240   93847312.1840
  89936975.1640
  23939419.625    23939423.695    23939427.598   125802475.8730   98027932.3590
  93943416.2660
  24971928.375    24971933.027                   131228367.0100  102255911.1610

  20755166.367    20755169.684                   109069174.5270   84989016.7500

  24639363.461    24639366.563                   129480696.0240  100894082.8150

  21910507.172    21910513.496    21910512.355   115140630.3530   89719940.3950
  85981582.4430
  25466434.531    25466442.855    25466441.848   133827032.9841  104280829.7951
  99935746.1020
  24106769.633    24106775.105    24106774.742   126681902.6800   98713222.1860
  94600150.8160
 22 12 25  0 20 30.0000000  0 11G01G03G08G10G14G16G21G22G27G30G32
  21377989.656    21377997.066    21377995.379   112342295.5220   87539355.7240
  83891856.2090
  24313679.750    24313687.711    24313688.723   127769205.0240   99560494.5550
  95412107.5580
  20411266.461    20411272.980    20411271.902   107261872.9610   83580808.0900
  80098245.6740
  22933339.289    22933345.277    22933343.098   120515602.9320   93908287.3710
  89995409.7030
  23923553.883    23923557.883    23923561.695   125719101.5590   97962965.3560
  93881156.2090
  24993680.586    24993684.066                   131342672.7600  102344980.5110

  20753912.000    20753915.328                   109062582.5360   84983880.1360

  24625085.516    24625090.891                   129405678.1300  100835627.3940

  21924777.047    21924783.457    21924782.648   115215620.1680   89778373.9950
  86037581.3130
  25475087.195    25475094.816    25475093.871   133872496.2730  104316255.6440
  99969695.9380
  24097156.695    24097162.684    24097162.359   126631388.7450   98673860.6810
  94562429.3790
 22 12 25  0 21  0.0000000  0 12G01G03G07G08G10G14G16G21G22G27G30G32
  21365841.242    21365848.914    21365847.223   112278456.9330   87489611.3860
  83844184.5520
  24291446.281    24291453.715    24291455.656   127652365.7100   99469450.9940
  95324857.4840
  25302954.813                                   132967909.4861

  20414793.180    20414799.508    20414798.359   107280404.8780   83595248.5440
  80112084.4460
  22948293.719    22948300.313    22948298.238   120594192.1190   93969525.7100
  90054096.4480
  23907757.375    23907761.828    23907765.246   125636090.0830   97898281.0650
  93819167.1290
  25015431.414    25015435.555                   131456975.0191  102434047.2111

  20752708.305    20752711.129                   109056255.5480   84978950.0220

  24610829.211    24610834.672                   129330760.2770  100777249.8780

  21939100.664    21939107.141    21939106.082   115290890.9220   89837026.5210
  86093789.9840
  25483802.039                    25483810.340   133918294.8480
 100003896.1070
  24087614.992    24087620.984    24087620.738   126581249.0570   98634790.8090
  94524987.4330
 22 12 25  0 21 30.0000000  0 12G01G03G07G08G10G14G16G21G22G27G30G32
  21353750.484    21353758.188    21353756.477   112214919.6100   87440101.8010
  83796737.8890
  24269232.125    24269239.988    24269240.902   127535630.1650   99378488.2680
  95237684.8590
  25315843.477                                   133035647.1311

  20418397.023    20418403.230    20418401.980   107299342.0650   83610004.7920
  80126225.8450
  22963312.836    22963319.078    22963317.230   120673116.5730   94031025.2790
  90113033.5220
  23892030.070    23892034.270    23892038.137   125553444.2090   97833881.6840
  93757451.0650
  25037182.219    25037185.203                   131571272.1330  102523109.8870

  20751554.234    20751557.480                   109050193.2810   84974226.1930

  24596592.859    24596597.738                   129255945.4020  100718952.5440

  21953477.422    21953484.039    21953482.926   115366442.0880   89895897.5500
  86150208.0510
  25492580.344    25492588.359    25492586.340   133964426.5030  104387891.6451
 100038345.0430
  24078145.672    24078151.746    24078151.262   126531486.3390   98596014.6860
  94487826.9900
 22 12 25  0 22  0.0000000  0 11G01G03G08G10G14G16G21G22G27G30G32
  21341717.086    21341724.883    21341723.168   112151683.8500   87390827.2030
  83749516.3950
  24247039.281    24247045.844    24247047.359   127419000.6750   99287608.1450
  95150591.4470
  20422077.555    20422084.031    20422082.773   107318684.7340   83625076.9980
  80140670.0410
  22978395.125    22978401.137    22978399.625   120752373.9420   94092784.2780
  90172219.2320
  23876372.945    23876377.711    23876380.910   125471166.4470   97769769.1470
  93696009.8690
  25058930.953    25058933.707                   131685561.4960  102612166.5070

  20750450.594    20750454.105                   109044394.3460   84969707.5400

  24582376.383    24582381.105                   129181236.3730  100660737.7900

  21967907.844    21967914.027    21967913.375   115442272.8790   89954986.4650
  86206834.9160
  25501422.672    25501430.465    25501430.434   134010888.7071  104424095.7611
 100073040.7600
  24068748.109    24068754.480    24068753.730   126482102.8830   98557534.0840
  94450949.7410
 22 12 25  0 22 30.0000000  0 12G01G03G07G08G10G14G16G21G22G27G30G32
  21329741.008    21329748.926    21329747.051   112088749.9260   87341787.7980
  83702520.3080
  24224865.523    24224872.543    24224873.824   127302479.6020   99196812.5010
  95063578.9980
  25341672.383                                   133171380.0081

  20425835.273    20425842.102    20425840.855   107338433.5970   83640465.7190
  80155417.5690
  22993539.805    22993546.551    22993544.242   120831961.9520   94154800.9060
  90231651.8200
  23860786.500    23860791.348    23860794.496   125389259.2290   97705945.3310
  93634845.3790
  25080677.531    25080681.004                   131799841.2720  102701215.7390

  20749397.281    20749400.578                   109038858.3110   84965393.7480

  24568180.484    24568186.273                   129106635.9070  100602607.6160

  21982390.789    21982397.387    21982396.531   115518382.4950   90014292.6480
  86263670.0070
  25510327.461                    25510331.750   134057678.9770
 100107981.5220
  24059424.320    24059430.453    24059429.547   126433100.9970   98519350.8300
  94414357.4550
 22 12 25  0 23  0.0000000  0 12G01G03G07G08G10G14G16G21G22G27G30G32
  21317822.875    21317830.613    21317828.684   112026118.2740   87292983.9340
  83655749.9310
  24202713.070    24202720.523    24202721.879   127186069.4180   99106103.2700
  94976649.3020
  25354611.430                                   133239362.2521

  20429670.898    20429677.324    20429676.242   107358588.4090   83656170.7550
  80170468.2260
  23008747.391    23008753.770    23008752.305   120911878.2610   94217073.3490
  90291329.5830
  23845270.867    23845276.211    23845279.090   125307725.1370   97642412.2720
  93573959.5340
  25102422.055    25102425.715                   131914108.7740  102790255.3390

  20748393.844    20748396.941                   109033584.3150   84961284.1460

  24554005.719    24554009.762                   129032146.9970  100544564.3640

  21996926.602    21996933.492    21996932.504   115594770.2110   90073815.5290
  86320712.7840
  25519292.531    25519299.996    25519299.602   134104795.1100  104497261.5691
 100143165.6930
  24050172.047    24050178.164    24050177.406   126384483.1260   98481466.7860
  94378051.9090
 22 12 25  0 23 30.0000000  0 11G01G03G08G10G14G16G21G22G27G30G32
  21305961.602    21305969.586    21305967.914   111963789.1950   87244415.8390
  83609205.5170
  24180582.016    24180589.930    24180591.117   127069772.3790   99015482.2320
  94889804.1230
  20433583.523    20433590.160    20433588.996   107379150.1010   83672192.8580
  80185822.7510
  23024016.711    23024023.738    23024021.613   120992120.1720   94279599.5090
  90351250.4880
  23829826.711    23829831.766    23829835.285   125226566.7100   97579171.9420
  93513354.2180
  25124164.148    25124166.973                   132028361.5670  102879283.4620

  20747439.891    20747443.000                   109028571.1910   84957377.8120

  24539851.906    24539857.379                   128957772.4680  100486610.2790

  22011515.914    22011522.215    22011521.695   115671435.2840   90133554.5360
  86377962.6520
  25528319.953    25528326.742    25528327.117   134152234.5000  104534227.3600
 100178591.1130
  24040994.516    24041000.461    24040999.570   126336251.6810   98443883.8630
  94342034.9440
 22 12 25  0 24  0.0000000  0 12G01G03G07G08G10G14G16G21G22G27G30G32
  21294158.797    21294166.363    21294164.738   111901763.0920   87196083.8320
  83562887.3470
  24158474.133    24158481.816    24158482.285   126953590.8980   98924951.2340
  94803045.2610
  25380539.203                                   133375605.7151

  20437573.492    20437580.250    20437579.203   107400118.3980   83688531.7840
  80201480.8830
  23039348.273    23039354.543    23039352.793   121072685.3790   94342377.5920
  90411412.8120
  23814454.344    23814460.449    23814463.164   125145786.3910   97516226.2610
  93453031.2630
  25145902.188    25145905.645                   132142597.7320  102968298.6480

  20746535.297    20746538.699                   109023818.5580   84953674.4710

  24525721.453    24525726.547                   128883515.0230  100428747.2520

  22026157.273    22026163.891    22026163.066   115748376.9060   90193509.0400
  86435419.0500
  25537408.141                    25537415.160   134199994.7791
 100214256.2030
  24031889.484    24031896.207    24031895.535   126288408.9410   98406603.7890
  94306308.2290
 22 12 25  0 24 30.0000000  0 11G01G03G08G10G14G16G21G22G27G30G32
  21282413.484    21282420.813    21282419.188   111840040.2200   87147988.1100
  83516795.6080
  24136387.867    24136395.145    24136396.102   126837527.3690   98834512.1660
  94716374.4690
  20441641.578    20441647.949    20441646.734   107421493.7420   83705187.8920
  80217442.9920
  23054740.211    23054746.910    23054745.086   121153571.5460   94405405.7690
  90471814.8170
  23799155.625    23799160.594    23799163.805   125065386.7350   97453577.2090
  93392992.5630
  25167636.797    25167639.875                   132256814.6220  103057298.8030

  20745680.813    20745683.895                   109019325.6380   84950173.4980

  24511613.977    24511618.203                   128809377.7420  100370978.0520

  22040851.039    22040857.801    22040857.289   115825594.3260   90253678.4410
  86493081.3790
  25546557.836    25546563.984    25546565.180   134248073.3960  104608910.8591
 100250159.0680
  24022859.477    24022866.090    24022865.867   126240957.2560   98369628.4650
  94270873.5550
 22 12 25  0 25  0.0000000  0 11G01G03G08G10G14G16G21G22G27G30G32
  21270725.438    21270733.121    21270731.484   111778620.7830   87100128.8240
  83470930.4790
  24114325.039    24114332.109    24114333.016   126721584.1100   98744166.7910
  94629793.4750
  20445786.688    20445793.078    20445791.965   107443276.8640   83722161.7440
  80233709.5990
  23070193.328    23070199.652    23070197.332   121234776.1060   94468682.0560
  90532454.5900
  23783929.297    23783933.973    23783937.137   124985369.9790   97391226.5110
  93333239.8200
  25189366.789    25189371.000                   132371010.3080  103146282.4250

  20744874.711    20744878.082                   109015091.2760   84946873.9960

  24497528.781    24497534.695                   128735363.1090  100313304.3300

  22055597.859    22055604.371    22055603.465   115903086.6240   90314062.0430
  86550949.0030
  25555766.414    25555773.117    25555773.836   134296467.9480  104646620.9970
 100286297.7440
  24013905.336    24013912.000    24013910.594   126193898.8040   98332959.5790
  94235732.5340
 22 12 25  0 25 30.0000000  0 11G01G03G08G10G14G16G21G22G27G30G32
  21259095.648    21259103.168    21259101.527   111717505.1050   87052506.2360
  83425292.1620
  24092284.406    24092291.945    24092293.094   126605763.3430   98653916.8460
  94543303.9620
  20450009.203    20450015.813    20450014.664   107465467.3540   83739453.0280
  80250280.4140
  23085705.594    23085712.523    23085710.148   121316296.2880   94532204.2590
  90593330.0340
  23768775.258    23768781.074    23768783.863   124905738.6400   97329176.1220
  93273774.8590
  25211091.117    25211097.250

