     2.11           OBSERVATION DATA    M (MIXED)           RINEX VERSION / TYPE
Mdb2Rinex 5.6.29X   Unknown             20230302 164126 UTC PGM / RUN BY / DATE
gfzrnx-1.15-8044    HEADER EDIT         20230217 033606 UTC COMMENT
SNR is mapped to RINEX snr flag value [1-9]                 COMMENT
LX:     < 12dBHz -> 1; 12-17dBHz -> 2; 18-23dBHz -> 3       COMMENT
       24-29dBHz -> 4; 30-35dBHz -> 5; 36-41dBHz -> 6       COMMENT
       42-47dBHz -> 7; 48-53dBHz -> 8; >= 54dBHz -> 9       COMMENT
Map of observations from RINEX 3 to RINEX 2.11              COMMENT
 G: C1C->C1 C2W->P2 C5Q->C5 L1C->L1 L2W->L2 L5Q->L5         COMMENT
MAD1                                                        MARKER NAME
IGN & CAM           Unknown                                 OBSERVER / AGENCY
1833575             LEICA GR50          4.61/7.811          REC # / TYPE / VERS
Unknown             LEIAR20         LEIM                    ANT # / TYPE
  4854006.8637  -312714.6848  4112992.0029                  APPROX POSITION XYZ
        0.0350        0.0000        0.0000                  ANTENNA: DELTA H/E/N
     6    C1    P2    C5    L1    L2    L5                  # / TYPES OF OBSERV
    30.000                                                  INTERVAL
  2023    02    16    00    00   00.0000000     GPS         TIME OF FIRST OBS
  2023    02    16    23    59   30.0000000     GPS         TIME OF LAST OBS
    30                                                      # OF SATELLITES
   G01   905   905   906   897   897   906                  PRN / # OF OBS
   G02  1149  1144        1144  1142                        PRN / # OF OBS
   G03   869   869   871   867   867   871                  PRN / # OF OBS
   G04  1018  1013  1025  1012  1009  1025                  PRN / # OF OBS
   G05  1020  1020        1017  1017                        PRN / # OF OBS
   G06  1053  1053  1058  1049  1049  1058                  PRN / # OF OBS
   G07  1094  1083        1088  1080                        PRN / # OF OBS
   G08   863   863   865   862   862   865                  PRN / # OF OBS
   G09   854   854   857   852   852   857                  PRN / # OF OBS
   G10  1131  1129  1114  1125  1124  1114                  PRN / # OF OBS
   G11  1102  1101  1106  1098  1098  1106                  PRN / # OF OBS
   G12   867   867         865   865                        PRN / # OF OBS
   G13   901   899         901   899                        PRN / # OF OBS
   G14  1160  1154  1163  1150  1148  1163                  PRN / # OF OBS
   G15   829   829         828   828                        PRN / # OF OBS
   G16   901   857         888   855                        PRN / # OF OBS
   G17  1127  1127        1124  1124                        PRN / # OF OBS
   G18  1082  1079  1067  1076  1075  1067                  PRN / # OF OBS
   G19  1147  1147        1142  1142                        PRN / # OF OBS
   G20   941   905         930   901                        PRN / # OF OBS
   G21   946   943         941   939                        PRN / # OF OBS
   G23  1132  1131  1130  1126  1126  1130                  PRN / # OF OBS
   G24   888   888   890   878   878   890                  PRN / # OF OBS
   G25   907   903   913   894   893   913                  PRN / # OF OBS
   G26   848   848   861   847   847   861                  PRN / # OF OBS
   G27   896   894   897   891   891   897                  PRN / # OF OBS
   G29   968   968         966   966                        PRN / # OF OBS
   G30   986   982   989   973   970   989                  PRN / # OF OBS
   G31  1044  1044        1042  1042                        PRN / # OF OBS
   G32  1143  1143  1146  1139  1139  1146                  PRN / # OF OBS
                                                            END OF HEADER
 23  2 16  0  0  0.0000000  0 10G01G03G04G06G09G14G17G19G21G31
  20989370.420    20989372.660    20989371.580   110300316.3130   85948460.9900
  82367207.2030
  20435838.580    20435840.200    20435840.100   107391396.4920   83681808.2540
  80195022.3840
  21385883.340    21385884.060    21385887.780   112383914.4100   87572056.1710
  83923143.2280
  24370087.560    24370091.140    24370091.820   128065675.1860   99791446.6380
  95633480.9670
  23597365.160    23597369.100    23597369.520   124005278.2130   96627597.5950
  92601485.4670
  25136935.140    25136940.800    25136947.860   132095474.4760  102931554.3320
  98642700.1700
  21197108.460    21197107.540                   111391592.6360   86798661.8040

  22403342.340    22403339.800                   117730357.0140   91737928.7840

  22828006.860    22828006.140                   119962687.7990   93477321.9670

  24534864.840    24534865.160                   128931604.3580  100466192.0600

 23  2 16  0  0 30.0000000  0 10G01G03G04G06G09G14G17G19G21G31
  20999379.520    20999381.700    20999380.760   110352914.1860   85989446.3320
  82406484.8240
  20440093.040    20440094.720    20440094.560   107413754.0300   83699229.7160
  80211717.9420
  21371982.560    21371983.380    21371987.120   112310865.6230   87515135.0750
  83868593.8470
  24352446.220    24352449.640    24352450.520   127972969.1000   99719208.1490
  95564252.4200
  23576377.100    23576381.080    23576381.440   123894986.6480   96541656.3030
  92519125.0930
  25152017.660    25152023.160    25152030.520   132174731.5880  102993312.6440
  98701885.0890
  21192880.340    21192879.420                   111369373.6210   86781348.2850

  22388118.220    22388115.580                   117650353.3950   91675588.3200

  22839993.460    22839992.860                   120025677.8460   93526405.0860

  24531626.000    24531626.360                   128914584.5560  100452929.9100

 23  2 16  0  1  0.0000000  0 10G01G03G04G06G09G14G17G19G21G31
  21009451.780    21009453.900    21009453.120   110405844.2440   86030690.5120
  82446010.5020
  20444409.660    20444411.360    20444411.200   107436438.1030   83716905.6170
  80228657.3430
  21358165.060    21358166.020    21358169.840   112238254.8110   87458555.2570
  83814371.5270
  24334803.040    24334806.220    24334807.340   127880252.5680   99646961.4860
  95495016.0850
  23555418.220    23555422.200    23555422.560   123784847.8860   96455834.0890
  92436878.8540
  25167104.940    25167110.500    25167117.960   132254013.9530  103055090.6090
  98761088.8820
  21188754.420    21188753.420                   111347691.4310   86764453.0660

  22372978.500    22372975.900                   117570794.0470   91613594.0460

  22852019.380    22852018.920                   120088874.5880   93575649.2640

  24528486.340    24528486.700                   128898086.2310  100440074.1070

 23  2 16  0  1 30.0000000  0 10G01G03G04G06G09G14G17G19G21G31
  21019586.900    21019589.020    21019588.220   110459104.6350   86072192.1010
  82485782.8450
  20448787.860    20448789.520    20448789.500   107459445.8860   83734833.7580
  80245838.4870
  21344431.060    21344432.000    21344435.980   112166082.4980   87402317.1250
  83760476.6570
  24317157.360    24317160.900    24317161.940   127787525.0630   99574706.2970
  95425771.4980
  23534488.620    23534492.540    23534493.060   123674862.8080   96370131.6090
  92354747.3600
  25182196.160    25182201.820    25182209.180   132333317.0940  103116884.7750
  98820308.1460
  21184730.540    21184729.520                   111326545.6280   86747975.8150

  22357923.540    22357921.080                   117491680.1660   91551946.8940

  22864084.240    22864083.880                   120152275.5400   93625052.5660

  24525446.060    24525446.440                   128882109.0940  100427624.4190

 23  2 16  0  2  0.0000000  0 10G01G03G04G06G09G14G17G19G21G31
  21029784.980    21029787.200    21029786.420   110512696.1200   86113951.6750
  82525802.4330
  20453227.680    20453229.280    20453229.380   107482777.2050   83753014.0110
  80263261.2280
  21330781.080    21330781.980    21330786.020   112094351.7240   87346423.0440
  83706911.5040
  24299510.180    24299513.700    24299514.740   127694788.4980   99502444.0700
  95356520.1810
  23513588.960    23513592.780    23513593.400   123565034.8520   96284551.5660
  92272733.1760
  25197290.960    25197296.720    25197304.180   132412638.9800  103178693.4820
  98879541.3690
  21180809.120    21180808.060                   111305938.3060   86731918.1620

  22342954.060    22342951.760                   117413015.6190   91490649.8740

  22876188.200    22876187.720                   120215881.8240   93674615.8780

  24522505.320    24522505.880                   128866655.3770  100415582.6070

 23  2 16  0  2 30.0000000  0 10G01G03G04G06G09G14G17G19G21G31
  21040045.600    21040047.800    21040047.120   110566615.8470   86155967.0250
  82566067.1410
  20457728.320    20457729.880    20457730.140   107506428.2650   83771443.4080
  80280922.7350
  21317215.060    21317215.940    21317219.840   112023062.0340   87290872.6650
  83653675.7330
  24281860.980    24281864.540    24281865.460   127602041.3290   99430173.5520
  95287260.9310
  23492719.180    23492722.840    23492723.580   123455363.8390   96199093.8010
  92190836.1880
  25212388.460    25212394.180    25212401.640   132491974.1060  103240512.5300
  98938784.4860
  21176989.740    21176988.660                   111285867.2680   86716278.3980

  22328070.080    22328067.920                   117334800.4960   91429703.0570

  22888330.680    22888330.040                   120279690.4830   93724336.8840

  24519663.920    24519664.480                   128851724.2610  100403947.9970

 23  2 16  0  3  0.0000000  0 10G01G03G04G06G09G14G17G19G21G31
  21050369.780    21050371.940    21050371.340   110620869.7430   86198242.7690
  82606581.3950
  20462290.760    20462292.280    20462292.660   107530404.0330   83790125.8250
  80298826.7180
  21303734.580    21303735.480    21303739.080   111952221.6090   87235672.3690
  83600775.4520
  24264211.100    24264214.800    24264215.580   127509290.7780   99357900.3890
  95217999.1660
  23471880.880    23471884.380    23471885.220   123345858.3300   96113764.9990
  92109062.7980
  25227489.000    25227494.840    25227502.320   132571325.6810  103302344.3640
  98998039.8570
  21173273.820    21173272.720                   111266339.8950   86701062.2610

  22313273.380    22313271.280                   117257043.6260   91369113.3170

  22900512.780    22900512.060                   120343707.6870   93774220.3790

  24516923.540    24516923.960                   128837323.0490  100392726.3230

 23  2 16  0  3 30.0000000  0 10G01G03G04G06G09G14G17G19G21G31
  21060756.000    21060758.120    21060757.580   110675449.7180   86240772.5980
  82647339.1540
  20466913.260    20466914.720    20466915.200   107554695.4690   83809054.2200
  80316966.4310
  21290338.480    21290339.420    21290342.740   111881824.6710   87180817.6450
  83548206.3580
  24246559.440    24246562.980    24246563.740   127416530.0080   99285619.2850
  95148729.7700
  23451072.960    23451076.400    23451077.320   123236512.9570   96028560.9750
  92027408.9670
  25242590.480    25242596.520    25242604.200   132650682.9670  103364180.6110
  99057299.4890
  21169660.000    21169658.960                   111247349.3220   86686264.4140

  22298562.940    22298560.840                   117179740.0230   91308876.7720

  22912733.180    22912732.360                   120407925.8180   93824260.4460

  24514282.820    24514283.100                   128823445.3070  100381912.5160

 23  2 16  0  4  0.0000000  0 10G01G03G04G06G09G14G17G19G21G31
  21071205.480    21071207.560    21071207.060   110730361.7730   86283561.1990
  82688344.8890
  20471596.840    20471598.140    20471598.700   107579307.6400   83828232.5380
  80335345.6460
  21277028.400    21277029.260    21277032.380   111811879.5160   87126314.9570
  83495974.6200
  24228907.160    24228910.560    24228911.400   127323766.3300   99213335.9090
  95079458.1980
  23430297.180    23430300.580    23430301.520   123127336.4060   95943488.5010
  91945881.2190
  25257693.900    25257700.000    25257707.760   132730049.3500  103426023.9420
  99116565.8910
  21166149.640    21166148.640                   111228902.5360   86671890.2960

  22283940.520    22283938.380                   117102898.6580   91249000.4080

  22924993.000    22924992.000                   120472350.9640   93874461.8360

  24511742.820    24511743.220                   128810098.3310  100371512.3140

 23  2 16  0  4 30.0000000  0 10G01G03G04G06G09G14G17G19G21G31
  21081717.120    21081719.280    21081718.760   110785601.1470   86326604.8390
  82729595.0420
  20476340.340    20476341.520    20476342.140   107604234.8560   83847656.3460
  80353960.1330
  21263803.780    21263804.560    21263807.560   111742383.6970   87072162.4040
  83444078.4270
  24211253.680    24211256.900    24211257.820   127230996.3120   99141047.5670
  95010181.9020
  23409553.240    23409556.520    23409557.420   123018326.6040   95858545.9580
  91864477.9700
  25272797.620    25272803.660    25272811.840   132809417.3880  103487868.5070
  99175833.4950
  21162742.120    21162741.140                   111210996.0640   86657937.1980

  22269405.800    22269403.600                   117026517.9130   91189482.9670

  22937291.060    22937290.020                   120536977.8550   93924820.4220

  24509303.440    24509303.840                   128797278.9900  100361523.2440

 23  2 16  0  5  0.0000000  0 10G01G03G04G06G09G14G17G19G21G31
  21092291.480    21092293.580    21092293.020   110841169.4850   86369904.8240
  82771090.8510
  20481143.960    20481145.080    20481145.620   107629477.8160   83867326.1870
  80372810.3970
  21250665.420    21250666.140    21250669.020   111673341.1020   87018363.0120
  83392520.6830
  24193599.520    24193602.660    24193603.620   127138222.8960   99068756.6040
  94940903.0490
  23388841.820    23388844.980    23388845.820   122909487.8620   95773736.6980
  91783202.4640
  25287901.400    25287907.740    25287915.860   132888786.1590  103549713.6810
  99235101.5980
  21159437.960    21159437.040                   111193632.6040   86644407.2290

  22254959.640    22254957.320                   116950602.2970   91130327.9680

  22949627.920    22949627.040                   120601808.6990   93975337.9300

  24506965.000    24506965.460                   128784990.3470  100351947.7130

 23  2 16  0  5 30.0000000  0 10G01G03G04G06G09G14G17G19G21G31
  21102928.800    21102930.940    21102930.280   110897068.6580   86413462.6030
  82812833.7220
  20486007.840    20486008.920    20486009.380   107655037.5680   83887242.8750
  80391897.2240
  21237614.100    21237614.820    21237617.660   111604755.9340   86964920.0570
  83341304.5270
  24175945.240    24175948.440    24175949.460   127045449.4200   98996465.5760
  94871624.1580
  23368163.840    23368166.920    23368167.720   122800824.8530   95689064.3690
  91702058.1920
  25303005.240    25303011.640    25303020.020   132968154.9390  103611558.8070
  99294369.6910
  21156237.740    21156236.840                   111176815.2210   86631302.7770

  22240602.960    22240600.600                   116875157.0560   91071539.4890

  22962004.100    22962003.300                   120666845.5940   94026015.9950

  24504728.100    24504728.600                   128773235.8920  100342788.4230

 23  2 16  0  6  0.0000000  0 10G01G03G04G06G09G14G17G19G21G31
  21113628.680    21113630.840    21113630.180   110953296.7470   86457276.6670
  82854822.2050
  20490931.460    20490932.480    20490932.880   107680911.1790   83907404.1260
  80411218.4220
  21224649.900    21224650.620    21224653.560   111536628.4850   86911833.7610
  83290430.1670
  24158290.880    24158294.120    24158295.200   126952675.2080   98924173.9860
  94802344.7220
  23347519.420    23347522.460    23347523.160   122692338.2670   95604529.5020
  91621045.6500
  25318108.340    25318114.720    25318123.280   133047519.0170  103673400.2830
  99353634.3170
  21153141.340    21153140.420                   111160543.2620   86618623.3240

  22226335.900    22226333.540                   116800182.7740   91013117.9910

  22974419.120    22974418.400                   120732086.6880   94076853.1680

  24502592.800    24502593.140                   128762015.1640  100334045.0220

 23  2 16  0  6 30.0000000  0 10G01G03G04G06G09G14G17G19G21G31
  21124390.600    21124392.580    21124392.080   111009850.6970   86501344.6730
  82897054.0350
  20495914.000    20495915.040    20495915.380   107707094.7640   83927806.9210
  80430771.0970
  21211772.540    21211773.320    21211776.500   111468957.9930   86859103.5380
  83239897.0380
  24140636.200    24140639.360    24140640.380   126859898.6370   98851880.5420
  94733063.5420
  23326908.500    23326911.600    23326912.260   122584027.8470   95520131.9220
  91540164.6620
  25333209.500    25333215.760    25333224.740   133126872.9460  103735233.8100
  99412891.3030
  21150148.360    21150147.440                   111144814.8300   86606367.4070

  22212158.380    22212156.040                   116725679.1640   90955063.2590

  22986872.320    22986871.660                   120797528.5750   94127846.8130

  24500558.760    24500558.840                   128751326.5140  100325716.2180

 23  2 16  0  7  0.0000000  0 10G01G03G04G06G09G14G17G19G21G31
  21135215.360    21135217.380    21135216.900   111066735.2980   86545670.3170
  82939532.7680
  20500956.280    20500957.320    20500957.600   107733592.1290   83948454.2190
  80450558.0940
  21198983.460    21198984.280    21198987.780   111401751.4230   86806734.8180
  83189710.3570
  24122982.240    24122985.220    24122986.180   126767125.9180   98779590.0910
  94663785.1650
  23306332.520    23306335.640    23306336.280   122475901.0070   95435877.3730
  91459420.7580
  25348309.200    25348315.520    25348324.440   133206218.8080  103797061.0180
  99472142.2470
  21147259.880    21147258.960                   111129635.5180   86594539.3720

  22198071.880    22198069.620                   116651654.3460   90897381.6110

  22999364.600    22999363.980                   120863175.7550   94179000.4190

  24498627.100    24498627.180                   128741176.2530  100317806.9460

 23  2 16  0  7 30.0000000  0 10G01G03G04G06G09G14G17G19G21G31
  21146102.380    21146104.460    21146103.960   111123946.9790   86590250.8250
  82982255.7490
  20506057.400    20506058.560    20506058.700   107760398.9190   83969342.6310
  80470576.1560
  21186282.460    21186283.300    21186287.040   111335007.5250   86754726.6160
  83139869.1740
  24105328.480    24105331.220    24105332.320   126674354.7490   98707300.8510
  94594508.0420
  23285791.400    23285794.540    23285795.140   122367957.0010   95351765.2880
  91378813.3680
  25363406.060    25363412.620    25363421.320   133285550.6100  103858877.2780
  99531382.6350
  21144475.400    21144474.500                   111115003.0350   86583137.4370

  22184076.360    22184074.140                   116578107.7680   90840072.6240

  23011895.520    23011894.800                   120929025.8790   94230312.1720

  24496797.500    24496797.640                   128731561.9870  100310315.3450

 23  2 16  0  8  0.0000000  0 10G01G03G04G06G09G14G17G19G21G31
  21157051.720    21157053.860    21157053.240   111181486.0550   86635086.4520
  83025223.2110
  20511217.300    20511218.540    20511218.560   107787514.5100   83990471.6630
  80490824.8120
  21173670.000    21173670.880    21173674.760   111268728.8270   86703080.9060
  83090375.3760
  24087675.380    24087678.140    24087679.240   126581587.1140   98635014.3540
  94525233.4710
  23265285.700    23265288.740    23265289.300   122260198.8090   95267797.9920
  91298344.7470
  25378499.840    25378506.640    25378515.240   133364865.9870  103920680.6940
  99590610.7700
  21141795.220    21141794.260                   111100918.5990   86572162.5520

  22170172.420    22170170.200                   116505042.5950   90783138.7460

  23024465.160    23024464.260                   120995079.5100   94281782.5050

  24495070.380    24495070.500                   128722485.6650  100303242.9130

 23  2 16  0  8 30.0000000  0 10G01G03G04G06G09G14G17G19G21G31
  21168062.940    21168065.200    21168064.400   111239350.5400   86680175.6330
  83068433.6880
  20516435.460    20516436.740    20516436.660   107814936.0820   84011839.1230
  80511301.9630
  21161146.180    21161146.960    21161150.980   111202915.5560   86651797.8680
  83041229.1320
  24070022.700    24070025.680    24070026.640   126488822.3450   98562730.1370
  94455961.0690
  23244815.460    23244818.460    23244818.980   122152627.2320   95183976.1020
  91218015.4700
  25393589.780    25393596.280    25393605.340   133444160.4810  103982467.7940
  99649823.2940
  21139219.240    21139218.220                   111087381.6460   86561614.2770

  22156360.300    22156358.080                   116432460.0560   90726580.9500

  23037072.980    23037072.000                   121061334.2120   94333409.5160

  24493445.520    24493445.640                   128713946.3800  100296588.9470

 23  2 16  0  9  0.0000000  0 10G01G03G04G06G09G14G17G19G21G31
  21179136.940    21179139.180    21179138.320   111297544.3380   86725521.4330
  83111890.0800
  20521712.420    20521713.700    20521713.640   107842666.5310   84033447.2650
  80532009.7580
  21148712.060    21148712.720    21148716.820   111137573.7170   86600882.1760
  82992434.9310
  24052371.460    24052374.600    24052375.300   126396065.6270   98490452.1610
  94386694.7100
  23224381.880    23224384.880    23224385.360   122045248.7460   95100304.6710
  91137830.3880
  25408675.920    25408682.480    25408691.580   133523435.4690  104044239.7340
  99709021.1570
  21136748.220    21136747.120                   111074396.3010   86551495.8240

  22142641.440    22142639.180                   116360367.1910   90670404.7200

  23049719.860    23049718.880                   121127793.7650   94385196.1460

  24491923.760    24491924.180                   128705949.5400  100290357.6720

 23  2 16  0  9 30.0000000  0 10G01G03G04G06G09G14G17G19G21G31
  21190272.480    21190274.680    21190273.860   111356061.7010   86771119.3600
  83155588.0950
  20527046.940    20527048.240    20527048.260   107870699.4940   84055291.1290
  80552943.4720
  21136367.060    21136367.520    21136371.700   111072699.9910   86550331.2500
  82943990.3090
  24034721.300    24034724.420    24034724.760   126303313.1350   98418177.4850
  94317431.4200
  23203984.620    23203987.600    23203988.020   121938060.6240   95016781.5670
  91057787.4410
  25423756.760    25423763.540    25423772.720   133602682.7620  104105990.0420
  99768198.3770
  21134381.380    21134380.240                   111061958.4520   86541803.9940

  22129015.120    22129012.880                   116288760.6780   90614607.4630

  23062404.760    23062403.760                   121194453.0750   94437138.4290

  24490504.580    24490504.820                   128698490.9820  100284545.8490

 23  2 16  0 10  0.0000000  0 10G01G03G04G06G09G14G17G19G21G31
  21201470.020    21201472.320    21201471.460   111414905.5600   86816971.6990
  83199529.9140
  20532439.340    20532440.680    20532440.880   107899036.9100   84077372.2360
  80574104.5270
  21124112.040    21124112.400    21124116.560   111008299.3530   86500148.9670
  82895898.9620
  24017072.560    24017075.880    24017076.160   126210568.9190   98345909.2460
  94248174.4050
  23183624.600    23183627.640    23183627.920   121831068.4060   94933411.1190
  90977890.7790
  25438832.420    25438839.420    25438848.580   133681902.7740  104167719.0600
  99827355.2240
  21132119.440    21132118.320                   111050071.8430   86532541.6990

  22115482.480    22115480.240                   116217646.2640   90559193.6630

  23075128.080    23075127.120                   121261314.8540   94489238.4900

  24489188.460    24489188.580                   128691574.7400  100279156.5930

 23  2 16  0 10 30.0000000  0 10G01G03G04G06G09G14G17G19G21G31
  21212730.180    21212732.600    21212731.660   111474078.1400   86863080.1860
  83243717.2060
  20537889.920    20537891.320    20537891.660   107927680.1720   84099691.6570
  80595493.9800
  21111947.880    21111948.220    21111952.180   110944376.2610   86450338.7980
  82848164.2230
  23999426.360    23999429.560    23999429.900   126117836.8860   98273650.5120
  94178926.4180
  23163302.700    23163305.920    23163306.080   121724277.0340   94850197.1770
  90898144.1240
  25453902.900    25453909.820    25453919.240   133761095.2310  104229426.6340
  99886491.4230
  21129963.100    21129961.960                   111038740.2180   86523711.8570

  22102044.580    22102042.320                   116147029.7150   90504167.8070

  23087890.380    23087889.480                   121328381.0650   94541497.8420

  24487976.200    24487976.260                   128685204.3290  100274192.6680

 23  2 16  0 11  0.0000000  0 10G01G03G04G06G09G14G17G19G21G31
  21224051.700    21224054.240    21224053.320   111533573.0740   86909439.8530
  83288145.2080
  20543397.340    20543398.780    20543399.240   107956622.1040   84122243.8080
  80617106.4560
  21099873.780    21099874.180    21099877.840   110880926.5080   86400897.4590
  82800782.9450
  23981781.460    23981784.620    23981785.060   126025112.0900   98201397.4320
  94109683.8990
  23143018.400    23143021.680    23143021.720   121617682.9430   94767136.9640
  90818544.7700
  25468966.480    25468973.500    25468983.040   133840251.3310  104291105.8480
  99945600.4690
  21127911.200    21127910.020                   111027957.3290   86515309.6070

  22088700.760    22088698.400                   116076907.3830   90449527.0540

  23100690.660    23100689.840                   121395646.4230   94593912.3840

  24486866.940    24486866.940                   128679375.0100  100269650.3500

 23  2 16  0 11 30.0000000  0 10G01G03G04G06G09G14G17G19G21G31
  21235435.220    21235437.780    21235436.920   111593393.8300   86956053.4090
  83332816.5270
  20548962.120    20548963.580    20548964.060   107985865.3220   84145030.7290
  80638943.9260
  21087890.840    21087891.300    21087894.680   110817955.7200   86351829.3430
  82753759.3400
  23964139.000    23964142.100    23964142.580   125932399.6150   98129153.9510
  94040450.5530
  23122772.720    23122776.100    23122776.000   121511292.3330   94684235.3000
  90739097.3560
  25484023.280    25484030.400    25484040.400   133919372.1010  104352757.4300
 100004683.0490
  21125964.640    21125963.440                   111017728.0220   86507338.7180

  22075452.220    22075449.860                   116007285.9830   90395276.6390

  23113529.380    23113528.580                   121463114.0490   94646484.5240

  24485861.440    24485861.380                   128674091.2770  100265533.1840

 23  2 16  0 12  0.0000000  0 10G01G03G04G06G09G14G17G19G21G31
  21246880.460    21246882.880    21246881.960   111653538.4520   87002919.3340
  83377729.7050
  20554583.740    20554585.200    20554585.680   108015407.0930   84168050.2870
  80661004.3370
  21075999.080    21075999.600    21076002.740   110755464.1310   86303134.6250
  82707093.5770
  23946498.740    23946501.880    23946502.320   125839699.1260   98056919.8100
  93971226.1360
  23102566.020    23102569.340    23102569.140   121405106.0650   94601492.8660
  90659802.5410
  25499072.580    25499079.720    25499089.980   133998527.0871  104414465.0111
 100063735.9180
  21124123.200    21124122.040                   111008051.1970   86499798.3310

  22062299.120    22062296.800                   115938166.0940   90341417.0140

  23126406.220    23126405.460                   121530782.1850   94699212.9040

  24484959.640    24484959.640                   128669352.3930  100261840.5950

 23  2 16  0 12 30.0000000  0 10G01G03G04G06G09G14G17G19G21G31
  21258388.620    21258391.080    21258390.000   111714014.2780   87050043.3310
  83422890.1990
  20560263.460    20560264.900    20560265.240   108045254.0150   84191307.6310
  80683292.6220
  21064200.280    21064200.840    21064203.900   110693461.1820   86254820.6650
  82660792.7080
  23928862.500    23928865.580    23928866.060   125747019.4050   97984701.8640
  93902017.2480
  23082400.060    23082403.420    23082403.160   121299134.1680   94518917.4740
  90580667.8060
  25514115.160    25514122.400    25514133.040   134077573.2490  104476058.4880
 100122762.7600
  21122388.480    21122387.360                   110998935.2640   86492695.0040

  22049243.360    22049241.040                   115869557.8010   90287956.0310

  23139322.620    23139321.680                   121598658.2830   94752103.3290

  24484163.100    24484163.180                   128665167.0070  100258579.2710

 23  2 16  0 13  0.0000000  0 10G01G03G04G06G09G14G17G19G21G31
  21269956.240    21269958.680    21269957.560   111774802.4920   87097410.7480
  83468283.9710
  20565997.440    20565998.920    20565999.100   108075386.2390   84214787.2830
  80705793.9540
  21052491.320    21052491.900    21052494.940   110631930.2340   86206874.4990
  82614844.2990
  23911226.840    23911229.920    23911230.600   125654343.2970   97912486.7170
  93832811.0710
  23062271.840    23062275.280    23062275.100   121193360.6450   94436496.6580
  90501681.2110
  25529147.300    25529154.240    25529165.520   134156563.3950  104537608.3350
 100181747.7720
  21120757.080    21120755.940                   110990362.2590   86486014.7380

  22036282.000    22036279.720                   115801445.6970   90234881.6930

  23152274.960    23152273.860                   121666723.5540   94805141.1830

  24483468.440    24483468.780                   128661517.6400  100255735.6370

 23  2 16  0 13 30.0000000  0 10G01G03G04G06G09G14G17G19G21G31
  21281586.600    21281588.900    21281587.760   111835920.1340   87145034.8720
  83513923.7550
  20571788.860    20571790.360    20571790.380   108105820.1780   84238502.0410
  80728520.5980
  21040875.800    21040876.420    21040879.520   110570890.4590   86159311.0620
  82569262.6800
  23893595.520    23893598.560    23893599.260   125561689.4650   97840288.9500
  93763621.5230
  23042185.220    23042188.720    23042188.660   121087805.3330   94354245.8760
  90422857.5590
  25544171.500    25544178.420    25544190.200   134235512.2580  104599125.8870
 100240701.8520
  21119232.360    21119231.220                   110982350.0690   86479771.4660

  22023418.880    22023416.620                   115733849.6790   90182209.4960

  23165266.580    23165265.340                   121734995.2620   94858339.8940

  24482879.340    24482879.620                   128658422.3160  100253323.7360

 23  2 16  0 14  0.0000000  0 10G01G03G04G06G09G14G17G19G21G31
  21293278.580    21293280.800    21293279.540   111897361.5460   87192911.2750
  83559805.3050
  20577636.440    20577638.020    20577637.880   108136549.3580   84262446.8560
  80751467.7150
  21029353.020    21029353.680    21029356.920   110510338.2720   86112127.5690
  82524045.1710
  23875967.520    23875970.400    23875971.360   125469053.7760   97768105.3080
  93694445.5490
  23022139.640    23022143.120    23022143.240   120982465.3050   94272162.8430
  90344194.6800
  25559186.300    25559193.160    25559205.120   134314411.6620  104660604.8800
 100299619.0900
  21117813.440    21117812.340                   110974893.8260   86473961.3970

  22010653.460    22010651.240                   115666767.1040   90129937.3900

  23178296.260    23178295.060                   121803467.2050   94911694.6260

  24482394.840    24482395.200                   128655876.6560  100251340.1450

 23  2 16  0 14 30.0000000  0 10G01G03G04G06G09G14G17G19G21G31
  21305031.540    21305033.720    21305032.460   111959123.2160   87241037.2330
  83605926.0150
  20583539.380    20583540.940    20583540.820   108167569.4640   84286618.3680
  80774632.0820
  21017922.760    21017923.460    21017926.840   110450272.2920   86065322.9350
  82479190.7290
  23858342.660    23858345.440    23858346.520   125376434.3880   97695934.3590
  93625281.7300
  23002134.940    23002138.320    23002138.580   120877339.8620   94190247.0170
  90265692.0340
  25574190.840    25574197.540    25574209.880   134393255.9080  104722040.9450
 100358495.0010
  21116499.840    21116498.780                   110967990.9740   86468582.5500

  21997985.600    21997983.360                   115600197.1350   90078064.7130

  23191363.620    23191362.400                   121872136.7630   94965203.3380

  24482014.580    24482015.020                   128653878.4760  100249783.1450

 23  2 16  0 15  0.0000000  0 10G01G03G04G06G09G14G17G19G21G31
  21316845.860    21316848.060    21316846.960   112021207.5680   87289414.6340
  83652287.6890
  20589498.020    20589499.480    20589499.500   108198882.2100   84311017.9110
  80798014.9790
  21006585.900    21006586.580    21006590.140   110390697.0770   86018900.7180
  82434702.7790
  23840721.600    23840724.440    23840725.500   125283835.4680   97623779.3790
  93556133.2080
  22982172.060    22982175.260    22982175.740   120772434.2330   94108502.4590
  90187353.5360
  25589184.840    25589191.520    25589204.000   134472044.9220  104783433.8260
 100417329.6490
  21115292.220    21115291.140                   110961644.8990   86463637.5520

  21985416.300    21985413.960                   115534144.8390   90026595.4140

  23204468.940    23204467.660                   121941005.8240   95018867.5120

  24481739.200    24481739.580                   128652431.2390  100248655.4730

 23  2 16  0 15 30.0000000  0 10G01G03G04G06G09G14G17G19G21G31
  21328721.620    21328723.960    21328723.000   112083615.5600   87338044.2080
  83698891.0270
  20595512.360    20595513.720    20595513.840   108230487.7310   84335645.5870
  80821616.5020
  20995343.080    20995343.640    20995347.400   110331615.5960   85972863.2270
  82390583.5300
  23823104.900    23823107.860    23823108.800   125191259.5390   97551642.3160
  93487001.8660
  22962251.780    22962254.780    22962255.400   120667752.1270   94026932.0700
  90109181.9360
  25604167.940    25604174.280    25604187.640   134550777.5030  104844782.7650
 100476122.1200
  21114190.900    21114189.740                   110955857.2570   86459127.6950

  21972946.280    21972943.860                   115468614.4600   89975532.7960

  23217612.540    23217611.340                   122010076.1840   95072688.5270

  24481569.140    24481569.340                   128651536.8010  100247958.5360

 23  2 16  0 16  0.0000000  0 10G01G03G04G06G09G14G17G19G21G31
  21340658.620    21340660.980    21340660.060   112146344.8370   87386924.1430
  83745734.2960
  20601581.840    20601583.120    20601583.400   108262382.9690   84360499.0150
  80845434.3710
  20984194.160    20984194.600    20984198.500   110273027.6310   85927210.3010
  82346832.8070
  23805492.460    23805495.500    23805496.340   125098706.0100   97479522.7060
  93417887.2350
  22942374.100    22942376.920    22942377.700   120563293.9850   93945536.1930
  90031177.5750
  25619139.300    25619145.680    25619159.840   134629449.0870  104906084.1220
 100534868.9810
  21113195.600    21113194.420                   110950626.6530   86455051.8930

  21960575.680    21960573.220                   115403606.4520   89924877.2280

  23230794.140    23230793.000                   122079345.8910   95126664.8890

  24481503.940    24481504.220                   128651194.3010  100247691.6900

 23  2 16  0 16 30.0000000  0 10G01G03G04G06G09G14G17G19G21G31
  21352656.580    21352658.880    21352658.040   112209394.0300   87436053.3660
  83792816.4640
  20607706.020    20607707.260    20607707.700   108294565.8120   84385576.5530
  80869467.0110
  20973139.240    20973139.700    20973143.580   110214933.8840   85881942.4790
  82303451.1400
  23787884.400    23787887.420    23787888.200   125006175.2060   97407420.8030
  93348789.5770
  22922539.280    22922542.020    22922542.900   120459061.2760   93864315.9780
  89953341.5670
  25634098.580    25634104.420    25634119.560   134708055.9750  104967368.9341
 100593567.4430
  21112306.200    21112305.020                   110945952.4270   86451409.6340

  21948304.780    21948302.280                   115339122.3040   89874629.8540

  23244013.480    23244012.380                   122148813.2170   95180795.2480

  24481543.660    24481544.060                   128651403.2890  100247854.5640

 23  2 16  0 17  0.0000000  0 10G01G03G04G06G09G14G17G19G21G31
  21364715.820    21364718.180    21364717.600   112272765.8770   87485433.9990
  83840139.5750
  20613885.320    20613886.520    20613887.120   108327038.2500   84410879.7480
  80893715.9160
  20962179.300    20962179.800    20962183.640   110157339.1160   85837063.4690
  82260442.1050
  23770281.440    23770284.440    23770285.180   124913671.5400   97335340.0440
  93279712.1870
  22902748.380    22902751.080    22902752.000   120355059.5180   93783275.7250
  89875678.0210
  25649045.680    25649051.120    25649067.080   134786598.5340  105028569.7490
 100652217.9370
  21111523.300    21111522.220                   110941838.1760   86448203.7240

  21936134.560    21936132.020                   115275167.5100   89824794.9720

  23257270.900    23257269.940                   122218481.1300   95235081.8970

  24481688.880    24481689.540                   128652167.6780  100248450.2270

 23  2 16  0 17 30.0000000  0 10G01G03G04G06G09G14G17G19G21G31
  21376835.660    21376838.020    21376837.560   112336456.0290   87535062.6690
  83887700.3620
  20620118.720    20620119.940    20620120.620   108359795.1720   84436404.6220
  80918177.2500
  20951313.840    20951314.420    20951318.220   110100241.0140   85792571.4640
  82217803.9360
  23752683.160    23752686.060    23752686.860   124821192.3950   97263278.3700
  93210653.0950
  22883001.040    22883003.700    22883004.640   120251287.1290   93702414.2030
  89798185.7530
  25663979.440    25663984.420    25664000.980
 100710815.4320
  21110846.300    21110845.220                   110938280.2960   86445431.3460

  21924064.920    21924062.400                   115211741.1370   89775371.8430

  23270565.620    23270564.840                   122288345.1840   95289521.3680

  24481939.420    24481940.000                   128653484.0600  100249476.0140

 23  2 16  0 18  0.0000000  0 10G01G03G04G06G09G14G17G19G21G31
  21389016.720    21389019.180    21389018.500   112400468.0470   87584942.1390
  83935501.5250
  20626406.820    20626408.120    20626408.700   108392839.4950   84462153.4430
  80942853.2010
  20940543.960    20940544.620    20940548.400   110043645.2330   85748470.8820
  82175540.8820
  23735090.580    23735093.640    23735094.300   124728743.1100   97191239.9900
  93141616.3230
  22863298.540    22863301.240    22863302.040   120147750.5360   93621736.4230
  89720869.5460
  25678899.920    25678904.440    25678921.640   134943527.6321  105150818.5921
 100769360.9660
  21110275.920    21110274.820                   110935282.9870   86443095.7700

  21912096.960    21912094.380                   115148848.8230   89726364.8650

  23283898.380    23283897.700                   122358409.0110   95344116.5220

  24482295.740    24482296.380                   128655357.0200  100250935.5000

 23  2 16  0 18 30.0000000  0 10G01G03G04G06G09G14G17G19G21G31
  21401258.480    21401261.120    21401260.240   112464799.3060   87635070.3620
  83983541.0730
  20632749.000    20632750.360    20632750.780   108426167.8440   84488123.5830
  80967741.2540
  20929869.540    20929870.260    20929874.000   109987551.1110   85704761.2060
  82133652.4500
  23717503.500    23717506.820    23717507.300   124636322.8360   97119224.2100
  93072601.2020
  22843640.920    22843643.700    22843644.300   120044449.8680   93541242.4800
  89643729.5510
  25693806.300    25693810.360    25693828.240   135021855.6460  105211856.0511
 100827851.0560
  21109811.860    21109810.720                   110932844.4320   86441195.5930

  21900230.680    21900228.060                   115086491.1140   89677774.4570

  23297268.800    23297268.100                   122428670.5350   95398865.7160

  24482757.900    24482758.320                   128657785.3110  100252827.7180

 23  2 16  0 19  0.0000000  0 10G01G03G04G06G09G14G17G19G21G31
  21413560.600    21413563.120    21413562.280   112529446.8730   87685445.0650
  84031816.8310
  20639144.520    20639145.960    20639146.200   108459776.6390   84514312.2520
  80992838.7190
  20919290.440    20919291.140    20919294.860   109931957.7570   85661441.7340
  82092137.9710
  23699921.760    23699925.180    23699925.560   124543930.4390   97047230.1410
  93003606.8920
  22824028.180    22824031.040    22824031.580   119941385.0670   93460932.3400
  89566765.6680
                                  25708719.940
 100886281.7640
  21109453.680    21109452.560                   110930962.4280   86439729.0920

  21888466.180    21888463.480                   115024668.1570   89629600.7470

  23310676.300    23310675.460                   122499126.5200   95453766.4630

  24483325.080    24483325.560                   128660740.7491  100255123.9511

 23  2 16  0 19 30.0000000  0 10G01G03G04G06G09G14G17G19G21G31
  21425922.880    21425925.100    21425924.360   112594410.5970   87736066.1380
  84080328.6720
  20645593.240    20645594.720    20645594.840   108493664.9780   84540718.7440
  81018144.9480
  20908807.000    20908807.660    20908811.340   109876867.0290   85618513.9200
  82050998.8170
  23682345.700    23682349.020    23682349.420   124451567.4790   96975259.0190
  92934634.5960
  22804460.820    22804463.800    22804464.340   119838558.7300   93380808.0100
  89489979.8650
  25723573.420    25723586.200    25723596.380   135178279.3731  105333776.4311
 100944651.4810
  21109201.580    21109200.400                   110929637.6310   86438696.7770

  21876803.880    21876801.140                   114963382.4750   89581845.6840

  23324120.720    23324119.960                   122569777.1420   95508818.8670

  24483997.940    24483998.220                   128664276.1891  100257878.8791

 23  2 16  0 20  0.0000000  0  9G01G03G04G06G09G17G19G21G31
  21438348.640    21438350.820    21438350.000   112659708.6610   87786947.7260
  84129090.1830
  20652098.500    20652100.020    20652100.000   108527850.4130   84567356.7390
  81043673.0190
  20898423.060    20898423.700    20898427.300   109822299.0720   85575993.4580
  82010250.0490
  23664779.040    23664782.440    23664782.780   124359254.0830   96903326.5120
  92865699.2650
  22784942.920    22784945.900    22784946.520   119735991.9350   93300885.9170
  89413387.8630
  21109059.120    21109057.820                   110928888.8650   86438113.3100

  21865247.780    21865245.080                   114902654.8100   89534525.4420

  23337605.640    23337604.980                   122640640.6620   95564037.1540

  24484779.920    24484780.020                   128668384.8700  100261080.4870

 23  2 16  0 20 30.0000000  0  9G01G03G04G06G09G17G19G21G31
  21450831.420    21450833.760    21450832.920   112725306.6510   87838063.0160
  84178075.6670
  20658653.640    20658655.100    20658655.020   108562297.8410   84594198.8900
  81069396.7420
  20888132.420    20888133.020    20888136.560   109768221.4670   85533855.0900
  81969867.4460
  23647215.580    23647218.940    23647219.320   124266957.5700   96831407.1690
  92796776.5680
  22765468.460    22765471.300    22765472.020   119633653.0310   93221141.4040
  89336966.0510
  21109019.920    21109018.580                   110928682.9070   86437952.8170

  21853791.860    21853789.260                   114842453.8880   89487615.6570

  23351124.600    23351124.060                   122711683.1580   95619394.9020

  24485664.480    24485664.420                   128673033.2930  100264702.6820

 23  2 16  0 21  0.0000000  0  9G01G03G04G06G09G17G19G21G31
  21463375.360    21463377.820    21463377.040   112791225.5900   87889428.4050
  84227300.8290
  20665262.480    20665263.940    20665263.820   108597027.6500   84621261.0730
  81095331.3360
  20877939.480    20877940.040    20877943.580   109714657.2240   85492116.7470
  81929868.2090
  23629659.760    23629662.960    23629663.400   124174700.8660   96759518.8350
  92727883.5880
  22746041.920    22746044.580    22746045.380   119531565.9500   93141593.1080
  89260732.2710
  21109088.060    21109086.680                   110929040.8510   86438231.7290

  21842440.740    21842438.160                   114782803.5310   89441134.8740

  23364681.540    23364681.080                   122782925.4090   95674908.2990

  24486655.840    24486656.040                   128678243.4980  100268762.6030

 23  2 16  0 21 30.0000000  0  9G01G03G04G06G09G17G19G21G31
  21475978.860    21475981.500    21475980.700   112857457.9190   87941037.9830
  84276759.9960
  20671923.520    20671924.980    20671924.940   108632031.6230   84648536.8900
  81121470.6640
  20867843.180    20867843.660    20867847.240   109661600.7070   85450774.0270
  81890248.1120
  23612110.500    23612113.500    23612114.120   124082478.3070   96687657.1070
  92659016.0870
  22726662.480    22726664.840    22726665.840   119429725.8640   93062237.2660
  89184682.9430
  21109262.100    21109260.760                   110929955.4420   86438944.3890

  21831193.420    21831190.880                   114723698.8460   89395079.2920

  23378275.100    23378274.680                   122854360.1990   95730571.7260

  24487752.880    24487753.260                   128684008.5240  100273254.8640

 23  2 16  0 22  0.0000000  0  9G01G03G04G06G09G17G19G21G31
  21488642.860    21488645.580    21488644.660   112924007.6850   87992894.9150
  84326456.2150
  20678637.380    20678638.840    20678638.840   108667313.1350   84676028.9710
  81147817.2400
  20857844.620    20857845.100    20857848.700   109609057.8910   85409831.6000
  81851011.6260
  23594568.820    23594571.660    23594572.580   123990295.7050   96615826.4970
  92590178.4570
  22707331.320    22707333.480    22707334.660   119328139.6810   92983079.2640
  89108823.2090
  21109543.020    21109541.760                   110931431.8500   86440094.8310

  21820051.260    21820048.760                   114665146.8100   89349454.3450

  23391906.100    23391905.700                   122925991.7550   95786388.4830

  24488956.440    24488956.700                   128690333.6080  100278183.5420

 23  2 16  0 22 30.0000000  0  9G01G03G04G06G09G17G19G21G31
  21501366.600    21501369.240    21501368.240   112990870.7960   88044996.0220
  84376386.4490
  20685403.200    20685404.620    20685404.660   108702867.5220   84703733.6830
  81174367.5900
  20847943.420    20847943.880    20847947.540   109557026.6840   85369287.8260
  81812157.1850
  23577034.380    23577037.140    23577038.160   123898151.0010   96544025.4440
  92521369.1180
  22688048.280    22688050.280    22688051.620   119226806.2010   92904118.1790
  89033152.1920
  21109930.200    21109929.000                   110933466.6470   86441680.3780

  21809014.060    21809011.580                   114607145.9700   89304258.8990

  23405573.800    23405573.360                   122997815.8960   95842355.3130

  24490265.960    24490266.160                   128697215.6480  100283546.1860

 23  2 16  0 23  0.0000000  0  9G01G03G04G06G09G17G19G21G31
  21514150.980    21514153.640    21514152.720   113058053.4210   88097346.0910
  84426555.2610
  20692221.960    20692223.360    20692223.360   108738700.3000   84731655.3220
  81201125.8260
  20838141.040    20838141.580    20838145.280   109505515.1210   85329148.9750
  81773690.7850
  23559508.620    23559511.320    23559512.360   123806052.1770   96472260.1470
  92452594.0320
  22668814.960    22668816.860    22668818.280   119125734.3460   92825360.9530
  88957676.5330
  21110424.920    21110423.740                   110936066.4890   86443706.2250

  21798083.420    21798081.000                   114549705.3340   89259499.9830

  23419279.360    23419278.780                   123069838.3040   95898476.6390

  24491682.820    24491682.880                   128704661.5730  100289348.2400

 23  2 16  0 23 30.0000000  0  9G01G03G04G06G09G17G19G21G31
  21526994.220    21526996.800    21526996.100   113125545.4470   88149937.2570
  84476955.1230
  20699091.680    20699093.000    20699093.100   108774800.7490   84759785.5420
  81228083.9510
  20828436.040    20828436.540    20828440.360   109454515.0250   85289408.6670
  81735606.3320
  23541990.020    23541992.660    23541993.580   123713991.1190   96400524.2710
  92383847.1450
  22649630.000    22649631.820    22649633.260   119024916.8870   92746801.9600
  88882390.8500
  21111025.340    21111024.160                   110939221.8120   86446164.9060

  21787258.000    21787255.580                   114492817.4420   89215171.7730

  23433020.900    23433020.240                   123142049.9690   95954745.4320

  24493205.260    24493205.220                   128712662.1700  100295582.5050

 23  2 16  0 24  0.0000000  0  9G01G03G04G06G09G17G19G21G31
  21539897.720    21539900.220    21539899.460   113193353.5610   88202774.7260
  84527591.0290
  20706013.500    20706014.800    20706014.960   108811174.9800   84788129.0880
  81255246.5140
  20818830.000    20818830.400    20818834.380   109404034.9970   85250073.6070
  81697910.2260
  23524480.120    23524482.660    23524483.580   123621976.4700   96328824.5550
  92315134.9030
  22630495.200    22630496.960    22630498.320   118924363.3310   92668448.6010
  88807302.2440
  21111732.920    21111731.780                   110942940.2360   86449062.3690

  21776539.580    21776537.120                   114436491.6330   89171281.5530

  23446799.700    23446799.020                   123214457.7340   96011167.0380

  24494834.620    24494834.520                   128721224.5960  100302254.5540

 23  2 16  0 24 30.0000000  0  9G01G03G04G06G09G17G19G21G31
  21552860.680    21552863.220    21552862.320   113261474.3390   88255855.8210
  84578460.4110
  20712986.660    20712987.940    20712988.120   108847818.9390   84816682.8180
  81282610.5120
  20809322.600    20809322.940    20809327.000   109354073.4430   85211142.5530
  81660601.3130
  23506978.820    23506981.360    23506982.180   123530006.7170   96257159.8250
  92246456.2180
  22611410.340    22611412.260    22611413.460   118824073.0970   92590300.4360
  88732410.2670
  21112547.040    21112545.940                   110947218.4180   86452396.0110

  21765928.000    21765925.540                   114380727.4190   89127828.9400

  23460615.000    23460614.480                   123287057.9270   96067738.5770

  24496570.400    24496570.520                   128730346.7520  100309362.7700

 23  2 16  0 25  0.0000000  0  9G01G03G04G06G09G17G19G21G31
  21565883.100    21565885.620    21565884.940   113329907.6130   88309180.4210
  84629563.1510
  20720010.960    20720012.240    20720012.480   108884731.9030   84845446.1650
  81310175.3810
  20799914.200    20799914.500    20799918.540   109304632.0830   85172616.8440
  81623680.8490
  23489486.480    23489488.980    23489489.800   123438083.6530   96185531.4880
  92177812.4000
  22592376.180    22592378.220    22592379.140   118724048.8360   92512359.5250
  88657716.9130
  21113467.760    21113466.700                   110952056.8210   86456166.1870

  21755423.760    21755421.360                   114325527.3450   89084815.9090

  23474466.940    23474466.560                   123359850.7550   96124460.2300

  24498412.720    24498412.920                   128740029.2520  100316907.6140

 23  2 16  0 25 30.0000000  0  9G01G03G04G06G09G17G19G21G31
  21578965.020    21578967.360    21578967.060   113398653.0350   88362748.2630
  84680898.9830
  20727086.280    20727087.600    20727087.900   108921912.9580   84874418.4070
  81337940.4490
  20790605.100    20790605.340    20790609.340   109255712.4430   85134497.6730
  81587149.9800
  23472003.140    23472005.740    23472006.620   123346208.9950   96113940.8580
  92109204.7330
  22573393.220    22573395.320    22573395.960   118624293.0840   92434627.8330
  88583224.0640
  21114495.200    21114494.120                   110957455.7290   86460373.1180

  21745027.280    21745024.960                   114270893.5730   89042244.1570

  23488355.540    23488355.160                   123432835.6910   96181331.5630

  24500361.780    24500362.080                   128750272.2360  100324889.1860

 23  2 16  0 26  0.0000000  0  9G01G03G04G06G09G17G19G21G31
  21592105.700    21592108.020    21592107.700   113467707.6200   88416557.0090
  84732465.6930
  20734211.920    20734213.220    20734213.640   108959358.5620   84903596.7980
  81365903.0730
  20781395.060    20781395.300    20781399.180   109207313.4060   85096784.1640
  81551007.8750
  23454528.840    23454531.640    23454532.440   123254381.7780   96042387.2060
  92040632.4680
  22554461.280    22554463.540    22554463.900   118524805.7160   92357105.2770
  88508931.6200
  21115628.820    21115627.780                   110963412.9050   86465015.0680

  21734738.600    21734736.360                   114216826.2610   89000113.8020

  23502280.320    23502279.840                   123506010.2830   96238350.6920

  24502417.360    24502417.500                   128761073.4640  100333305.7570

 23  2 16  0 26 30.0000000  0  9G01G03G04G06G09G17G19G21G31
  21605305.900    21605308.380    21605307.700   113537075.2700   88470609.6870
  84784266.1820
  20741388.520    20741389.900    20741390.300   108997072.0700   84932983.9410
  81394065.7480
  20772285.200    20772285.440    20772289.180   109159440.6870   85059480.7690
  81515258.7950
  23437064.740    23437067.640    23437068.420   123162607.8860   95970875.1110
  91972100.0610
  22535581.780    22535584.120    22535584.340   118425593.4450   92279797.0830
  88434844.6170
  21116869.500    21116868.460                   110969932.6360   86470095.3670

  21724558.980    21724556.720                   114163331.6710   88958429.7250

  23516241.800    23516241.180                   123579378.2540   96295520.5010

  24504580.060    24504580.040                   128772437.7120  100342161.0340

 23  2 16  0 27  0.0000000  0  9G01G03G04G06G09G17G19G21G31
  21618565.200    21618567.680    21618566.840   113606752.9310   88524903.9400
  84836298.1760
  20748615.420    20748616.840    20748617.260   109035049.9040   84962577.0500
  81422425.8070
  20763275.220    20763275.460    20763279.140   109112093.0620   85022586.5430
  81479901.8310
  23419610.620    23419613.640    23419614.340   123070886.3310   95899403.8090
  91903606.7160
  22516754.540    22516757.000    22516757.180   118326656.0830   92202703.1010
  88360962.8990
  21118216.740    21118215.620                   110977012.2150   86475611.9160

  21714488.220    21714485.940                   114110409.4750   88917191.6620

  23530239.560    23530238.900                   123652937.1210   96352839.0520

  24506849.300    24506849.320                   128784362.8780  100351453.4110

 23  2 16  0 27 30.0000000  0  9G01G03G04G06G09G17G19G21G31
  21631883.060    21631885.400    21631884.740   113676738.3060   88579437.9790
  84888559.9520
  20755892.080    20755893.520    20755893.920   109073289.2390   84992373.9260
  81450981.1470
  20754365.120    20754365.300    20754368.940   109065270.0580   84986101.1070
  81444936.6280
  23402166.460    23402169.460    23402170.120   122979216.8750   95827973.0870
  91835152.2830
  22497979.780    22497982.340    22497982.480   118227994.2080   92125823.7830
  88287286.9000
  21119670.100    21119668.980                   110984649.6780   86481563.1760

  21704526.460    21704524.140                   114058060.0180   88876399.8960

  23544273.200    23544272.460                   123726684.3520   96410304.3820

  24509224.920    24509225.080                   128796847.1870  100361181.4830

 23  2 16  0 28  0.0000000  0  9G01G03G04G06G09G17G19G21G31
  21645260.080    21645262.460    21645261.880   113747035.2330   88634214.7770
  84941054.3720
  20763219.120    20763220.600    20763221.040   109111793.3540   85022377.1250
  81479734.2100
  20745555.860    20745556.060    20745559.660   109018977.2890   84950028.8380
  81410367.3800
  23384733.400    23384736.460    23384736.920   122887605.4470   95756587.5950
  91766741.1720
  22479258.760    22479261.340    22479261.460   118129614.4770   92049164.3110
  88213821.5890
  21121230.460    21121229.400                   110992849.3830   86487952.5460

  21694675.000    21694672.620                   114006290.1800   88836059.7750

  23558343.460    23558342.640                   123800623.9200   96467919.5910

  24511707.980    24511708.100                   128809895.0720  100371348.7050

 23  2 16  0 28 30.0000000  0  9G01G03G04G06G09G17G19G21G31
  21658695.380    21658697.820    21658697.100   113817638.1670   88689230.0210
  84993777.3180
  20770595.440    20770596.940    20770597.360   109150556.2250   85052581.9550
  81508680.5060
  20736846.820    20736847.020    20736850.640   108973211.0270   84914366.8370
  81376191.3070
  23367310.860    23367313.780    23367314.280   122796048.5910   95685244.6110
  91698370.8220
  22460591.000    22460593.500    22460593.600   118031514.2360   91972722.6230
  88140564.9860
  21122896.820    21122895.860                   111001606.2380   86494776.0610

  21684933.140    21684930.780                   113955096.5680   88796168.6690

  23572449.320    23572448.460                   123874750.6670   96525680.6660

  24514297.280    24514297.340                   128823501.8490  100381951.4170

 23  2 16  0 29  0.0000000  0  9G01G03G04G06G09G17G19G21G31
  21672189.260    21672191.680    21672190.880   113888548.8380   88744485.0650
  85046730.0700
  20778021.280    20778022.760    20778023.260   109189579.1220   85082989.4030
  81537820.9730
  20728238.560    20728238.860    20728242.480   108927974.7520   84879117.8150
  81342411.0030
  23349899.320    23349902.140    23349902.780   122704550.1650   95613947.1530
  91630044.1090
  22441977.300    22441979.680    22441979.820   117933698.0600   91896502.2830
  88067520.5040
  21124669.580    21124668.720                   111010922.3510   86502035.3660

  21675301.740    21675299.300                   113904483.3900   88756729.8420

  23586591.100    23586590.280                   123949066.1600   96583588.8010

  24516993.260    24516993.400                   128837669.7340  100392991.3710

 23  2 16  0 29 30.0000000  0  9G01G03G04G06G09G17G19G21G31
  21685742.040    21685744.380    21685743.760   113959769.2040   88799981.4320
  85099914.0740
  20785496.880    20785498.340    20785498.940   109228863.4500   85113600.5620
  81567156.6630
  20719731.880    20719732.260    20719735.860   108883272.1570   84844284.6550
  81309029.2200
  23332499.760    23332502.540    23332503.120   122613114.2300   95542698.3880
  91561764.0440
  22423418.500    22423420.760    22423421.020   117836170.7500   91820507.0240
  87994691.7250
  21126549.220    21126548.420                   111020800.1020   86509732.3030

  21665781.700    21665779.240                   113854455.5500   88717747.1150

  23600769.220    23600768.480                   124023572.9620   96641645.9960

  24519796.600    24519796.760                   128852401.4140  100404470.6470

 23  2 16  0 30  0.0000000  0  9G01G03G04G06G09G17G19G21G31
  21699353.060    21699355.320    21699354.840   114031295.3050   88855716.0330
  85153326.3870
  20793021.420    20793022.800    20793023.440   109268404.8460   85144412.0350
  81596684.3270
  20711326.360    20711326.840    20711330.340   108839101.0980   84809865.6730
  81276044.3680
  23315111.640    23315114.500    23315115.080   122521738.9870   95471496.9230
  91493529.3230
