     2.11           OBSERVATION DATA    M (MIXED)           RINEX VERSION / TYPE
Mdb2Rinex 5.6.29X   Unknown             20230311 112522 UTC PGM / RUN BY / DATE
gfzrnx-1.15-8044    HEADER EDIT         20230212 041007 UTC COMMENT
SNR is mapped to RINEX snr flag value [1-9]                 COMMENT
LX:     < 12dBHz -> 1; 12-17dBHz -> 2; 18-23dBHz -> 3       COMMENT
       24-29dBHz -> 4; 30-35dBHz -> 5; 36-41dBHz -> 6       COMMENT
       42-47dBHz -> 7; 48-53dBHz -> 8; >= 54dBHz -> 9       COMMENT
Map of observations from RINEX 3 to RINEX 2.11              COMMENT
 G: C1C->C1 C2W->P2 C5Q->C5 L1C->L1 L2W->L2 L5Q->L5         COMMENT
TERU                                                        MARKER NAME
IGN-E               Unknown                                 OBSERVER / AGENCY
1871623             LEICA GR50          4.61/7.811          REC # / TYPE / VERS
23349044            LEIAR20         LEIM                    ANT # / TYPE
  4867391.6750   -95523.9180  4108341.2560                  APPROX POSITION XYZ
        0.0600        0.0000        0.0000                  ANTENNA: DELTA H/E/N
     6    C1    P2    C5    L1    L2    L5                  # / TYPES OF OBSERV
    30.000                                                  INTERVAL
  2023    02    11    00    00   00.0000000     GPS         TIME OF FIRST OBS
  2023    02    11    23    59   30.0000000     GPS         TIME OF LAST OBS
    30                                                      # OF SATELLITES
   G01   886   886   887   881   881   887                  PRN / # OF OBS
   G02  1073  1069        1070  1067                        PRN / # OF OBS
   G03   825   822   825   820   819   825                  PRN / # OF OBS
   G04   744   736   762   734   732   762                  PRN / # OF OBS
   G05   904   901         892   892                        PRN / # OF OBS
   G06   918   917   948   903   903   948                  PRN / # OF OBS
   G07  1021  1011        1017  1008                        PRN / # OF OBS
   G08   858   858   861   855   855   861                  PRN / # OF OBS
   G09   818   818   826   812   812   826                  PRN / # OF OBS
   G10  1041  1041  1036  1041  1041  1036                  PRN / # OF OBS
   G11   994   990  1011   988   986  1011                  PRN / # OF OBS
   G12   814   812         807   807                        PRN / # OF OBS
   G13   876   872         874   871                        PRN / # OF OBS
   G14  1086  1084  1091  1076  1075  1091                  PRN / # OF OBS
   G15   812   812         812   812                        PRN / # OF OBS
   G16   852   829         831   820                        PRN / # OF OBS
   G17  1026  1026        1017  1017                        PRN / # OF OBS
   G18   972   969   943   963   960   943                  PRN / # OF OBS
   G19  1052  1041        1040  1032                        PRN / # OF OBS
   G20   844   819         822   809                        PRN / # OF OBS
   G21   918   917         917   917                        PRN / # OF OBS
   G23  1082  1072  1058  1079  1070  1058                  PRN / # OF OBS
   G24   866   866   870   862   862   870                  PRN / # OF OBS
   G25   823   821   832   818   818   832                  PRN / # OF OBS
   G26   797   796   799   794   794   799                  PRN / # OF OBS
   G27   873   873   881   870   870   881                  PRN / # OF OBS
   G29   778   778         771   771                        PRN / # OF OBS
   G30   753   753   772   748   748   772                  PRN / # OF OBS
   G31   920   917         903   903                        PRN / # OF OBS
   G32  1048  1041  1055  1040  1037  1055                  PRN / # OF OBS
                                                            END OF HEADER
 23  2 11  0  0  0.0000000  0 10G01G03G04G08G09G14G17G19G21G31
  20535081.120    20535081.820    20535082.120   107912752.7760   84087957.7890
  80584329.0570
  20342071.060    20342071.100    20342072.520   106898467.2160   83297628.8330
  79827022.4330
  21996392.120    21996391.740    21996396.940   115592132.7840   90071896.8670
  86318938.1450
  25304936.140    25304943.760    25304949.160   132978289.0140  103619458.0730
  99302083.8750
  24536448.540    24536454.760    24536455.820   128939997.9890  100472806.6730
  96286483.4860
  24726744.220    24726744.960    24726750.500   129939896.4340  101251860.8770
  97033063.6110
  21576382.860    21576380.300                   113384678.6610   88351698.3190

  23247201.440    23247197.760                   122164862.6710   95193387.9510

  22217505.460    22217502.600                   116753993.7600   90977261.2580

  24545571.860    24545570.720                   128987851.2800  100510004.7390

 23  2 11  0  0 30.0000000  0 10G01G03G04G08G09G14G17G19G21G31
  20541859.980    20541860.720    20541860.920   107948375.9860   84115716.1200
  80610930.7860
  20342919.960    20342920.040    20342921.480   106902928.3520   83301105.0410
  79830353.7950
  21979405.820    21979405.400    21979410.700   115502869.2250   90002340.8760
  86252280.3280
  25326072.100    25326079.940    25326085.720   133089354.0130  103706000.9590
  99385020.4720
  24514673.420    24514679.240    24514680.580   128825570.5620  100383642.9860
  96201035.0690
  24740957.060    24740957.660    24740963.340   130014585.1000  101310059.7210
  97088837.4500
  21568172.520    21568169.980                   113341533.3280   88318078.5810

  23228971.900    23228968.340                   122069065.9040   95118741.1380

  22227590.880    22227588.080                   116806993.2020   91018559.5040

  24538852.260    24538851.080                   128952539.5390  100482489.1670

 23  2 11  0  1  0.0000000  0 10G01G03G04G08G09G14G17G19G21G31
  20548706.420    20548707.140    20548707.320   107984354.2500   84143751.1210
  80637797.6670
  20343837.940    20343838.080    20343839.460   106907752.4480   83304864.0810
  79833956.2120
  21962484.900    21962484.420    21962489.680   115413949.0690   89933052.4840
  86185878.9540
  25347202.400    25347210.440    25347216.160   133200388.9790  103792520.3810
  99467934.6190
  24492908.940    24492914.420    24492916.220   128711105.5891  100294390.2761
  96115628.8290
  24755196.040    24755196.700    24755202.540   130089410.2620  101368364.9600
  97144713.2730
  21560054.760    21560052.340                   113298874.1190   88284837.6430

  23210805.380    23210801.780                   121973599.5120   95044351.7580

  22237719.060    22237716.200                   116860217.1260   91060032.6850

  24532220.900    24532219.360                   128917689.5940  100455333.3950

 23  2 11  0  1 30.0000000  0 10G01G03G04G08G09G14G17G19G21G31
  20555619.980    20555620.700    20555620.820   108020685.1320   84172060.8910
  80664927.8540
  20344824.340    20344824.500    20344825.840   106912936.0360   83308903.2440
  79837827.0790
  21945629.300    21945628.740    21945634.040   115325372.3090   89864031.6580
  86119733.9970
  25368326.060    25368334.420    25368340.280   133311389.3750  103879012.7770
  99550822.8670
  24471154.940    24471160.060    24471162.200   128596790.8740  100205314.3570
  96030264.5550
  24769459.180    24769460.480    24769466.140   130164366.6170  101426772.2660
  97200686.9390
  21552029.220    21552026.860                   113256699.3190   88251974.1610

  23192701.740    23192698.060                   121878463.9500   94970220.1490

  22247889.520    22247886.640                   116913663.2470   91101678.9960

  24525677.120    24525675.540                   128883300.9540  100428537.0890

 23  2 11  0  2  0.0000000  0 10G01G03G04G08G09G14G17G19G21G31
  20562600.880    20562601.620    20562601.720   108057369.9570   84200646.4540
  80692322.3540
  20345879.180    20345879.340    20345880.720   106918479.3600   83313222.7140
  79841966.5690
  21928839.760    21928839.140    21928844.600   115237142.6570   89795281.3110
  86053848.2630
  25389442.820    25389451.560    25389457.040   133422353.9020  103965477.2500
  99633684.3700
  24449412.600    24449417.760    24449419.540   128482536.1480  100116285.2190
  95944945.0220
  24783747.780    24783748.820    24783755.020   130239451.9980  101485280.2340
  97256757.0660
  21544096.480    21544094.080                   113215012.2320   88219490.7080

  23174661.840    23174658.280                   121783663.1360   94896349.4260

  22258102.440    22258099.660                   116967332.8550   91143499.4460

  24519221.700    24519219.140                   128849376.9520  100402102.8650

 23  2 11  0  2 30.0000000  0 10G01G03G04G08G09G14G17G19G21G31
  20569648.580    20569649.380    20569649.440   108094405.8520   84229505.5790
  80719979.0190
  20347001.760    20347001.920    20347003.260   106924378.4850   83317819.4380
  79846371.7680
  21912116.200    21912115.480    21912121.080   115149259.6540   89726801.0690
  85988221.3820
  25410552.080    25410561.140    25410566.280   133533278.1320  104051910.2570
  99716515.7320
  24427681.580    24427686.940    24427688.300   128368333.7381  100027295.2801
  95859669.8250
  24798059.500    24798060.680    24798066.900   130314660.6650  101543884.2620
  97312919.2270
  21536256.160    21536253.720                   113173811.1270   88187385.9410

  23156685.680    23156682.120                   121689197.3260   94822739.7120

  22268357.380    22268354.640                   117021222.8630   91185491.6310

  24512854.400    24512851.720                   128815916.9690  100376030.1660

 23  2 11  0  3  0.0000000  0 10G01G03G04G08G09G14G17G19G21G31
  20576764.440    20576765.260    20576765.380   108131799.9800   84258643.8460
  80747903.1860
  20348193.220    20348193.400    20348194.640   106930639.5230   83322698.1690
  79851047.2170
  21895460.380    21895459.800    21895465.100   115061732.8520   89658598.4040
  85922860.4860
  25431654.300    25431663.880    25431668.900   133644166.7820  104138315.5150
  99799320.4510
  24405963.680    24405968.840    24405970.340   128254207.1580   99938365.9320
  95774445.9870
  24812395.100    24812396.320    24812403.560   130389996.6780  101602587.4600
  97369176.3840
  21528510.040    21528507.600                   113133105.1550   88155666.9990

  23138775.120    23138771.480                   121595076.5080   94749398.8270

  22278655.660    22278652.920                   117075340.5660   91227661.2500

  24506576.860    24506574.680                   128782930.0660  100350326.1510

 23  2 11  0  3 30.0000000  0 10G01G03G04G08G09G14G17G19G21G31
  20583946.160    20583947.000    20583947.180   108169540.2290   84288051.8200
  80776085.8290
  20349451.020    20349451.200    20349452.460   106937249.3460   83327848.6810
  79855983.1240
  21878870.480    21878869.980    21878875.140   114974552.5390   89590665.7250
  85857758.3540
  25452747.120    25452756.940    25452761.880   133755005.4170  104224681.8100
  99882087.8060
  24384257.200    24384262.200    24384263.600   128140139.6300   99849482.5690
  95689266.1860
  24826752.640    24826753.420    24826761.300   130465444.7090  101661378.0110
  97425517.2360
  21520856.120    21520853.740                   113092883.5990   88124325.5190

  23120928.200    23120924.540                   121501291.2460   94676319.4150

  22288994.920    22288992.100                   117129673.6660   91269998.7130

  24500387.920    24500386.040                   128750406.4020  100324983.0810

 23  2 11  0  4  0.0000000  0 10G01G03G04G08G09G14G17G19G21G31
  20591195.520    20591196.360    20591196.620   108207635.8930   84317736.7410
  80804533.8790
  20350776.760    20350776.920    20350778.200   106944216.1670   83333277.3720
  79861185.6260
  21862348.740    21862348.320    21862353.340   114887730.4140   89523012.1540
  85792923.6890
  25473831.880    25473842.180    25473847.300   133865801.2660  104311014.7250
  99964823.1450
  24362563.980    24362569.000    24362569.980   128026142.7860   99760654.3120
  95604139.1750
  24841133.080    24841133.680    24841141.380   130541010.9920  101720260.6830
  97481946.4680
  21513296.500    21513294.100                   113053157.4050   88093370.0470

  23103147.620    23103144.080                   121407854.0590   94603511.2290

  22299376.980    22299374.180                   117184231.6070   91312511.3720

  24494289.520    24494287.860                   128718356.9760  100300009.5230

 23  2 11  0  4 30.0000000  0 10G01G03G04G08G09G14G17G19G21G31
  20598512.720    20598513.500    20598513.780   108246087.7000   84347699.1730
  80833247.8690
  20352170.380    20352170.540    20352171.780   106951539.7290   83338984.0460
  79866654.5200
  21845895.780    21845895.340    21845900.280   114801269.6360   89455640.1560
  85728358.8580
  25494908.620    25494919.100    25494924.260   133976552.8040  104397313.0850
 100047525.4640
  24340884.760    24340889.560    24340890.500   127912219.6760   99671883.4760
  95519067.1980
  24855535.240    24855535.940    24855543.360   130616693.2510  101779233.7280
  97538462.2370
  21505831.680    21505829.140                   113013929.3320   88062802.7200

  23085433.960    23085430.280                   121314768.6050   94530977.1290

  22309801.980    22309799.220                   117239015.1470   91355199.8260

  24488281.760    24488279.660                   128686784.4600  100275407.6200

 23  2 11  0  5  0.0000000  0 10G01G03G04G08G09G14G17G19G21G31
  20605896.900    20605897.700    20605897.920   108284891.6470   84377936.0030
  80862224.8260
  20353630.920    20353631.120    20353632.300   106959214.9080   83344964.7090
  79872385.9910
  21829511.280    21829510.820    21829515.720   114715168.5230   89388548.4190
  85664062.6120
  25515975.640    25515986.300    25515991.720   134087253.4080  104483571.8140
 100130189.7370
  24319219.280    24319223.860    24319224.840   127798368.6210   99583168.7710
  95434049.0350
  24869958.160    24869958.940    24869966.340   130692484.3230  101838291.5270
  97595059.2600
  21498461.000    21498458.320                   112975196.0450   88032620.9380

  23067787.020    23067783.440                   121222033.6590   94458716.1550

  22320269.180    22320266.420                   117294020.4410   91398061.0680

  24482364.060    24482361.260                   128655686.9490  100251175.8260

 23  2 11  0  5 30.0000000  0 10G01G03G04G08G09G14G17G19G21G31
  20613348.380    20613349.200    20613349.380   108324049.5330   84408448.6250
  80891466.0850
  20355158.540    20355158.720    20355159.880   106967242.5270   83351220.0020
  79878380.6470
  21813196.040    21813195.500    21813200.400   114629431.3030   89321740.2160
  85600038.0940
  25537032.980    25537043.860    25537049.580   134197903.5870  104569791.2010
 100212816.3460
  24297568.360    24297572.600    24297573.720   127684593.7480   99494513.3980
  95349087.7400
  24884401.520    24884402.260    24884408.840   130768382.9580  101897433.1600
  97651736.6860
  21491185.120    21491182.480                   112936961.1080   88002827.4760

  23050207.760    23050204.280                   121129654.1030   94386732.1060

  22330778.900    22330776.160                   117349249.0800   91441096.3480

  24476537.180    24476534.840                   128625068.2090  100227317.1020

 23  2 11  0  6  0.0000000  0 10G01G03G04G08G09G14G17G19G21G31
  20620867.280    20620868.160    20620868.380   108363561.8690   84439237.4370
  80920972.0360
  20356753.120    20356753.240    20356754.460   106975622.0700   83357749.5180
  79884638.1020
  21796950.560    21796950.020    21796955.000   114544060.9060   89255217.8540
  85536287.5050
  25558079.900    25558091.420    25558097.620   134308501.3210  104655969.7510
 100295403.8030
  24275932.620    24275936.680    24275937.660   127570898.0070   99405919.6950
  95264185.4870
  24898864.640    24898865.580    24898871.960   130844386.6860  101956656.6560
  97708492.5130
  21484004.480    21484002.020                   112899226.7740   87973424.0890

  23032696.620    23032693.160                   121037632.7720   94315027.2060

  22341331.180    22341328.540                   117404701.5410   91484306.0380

  24470802.200    24470799.640                   128594930.8670  100203833.4570

 23  2 11  0  6 30.0000000  0 10G01G03G04G08G09G14G17G19G21G31
  20628453.100    20628454.040    20628454.300   108403425.7530   84470300.1860
  80950740.5040
  20358413.880    20358414.020    20358415.280   106984349.5670   83364550.1660
  79891155.3920
  21780774.800    21780774.240    21780779.280   114459056.7500   89188980.8790
  85472810.4190
  25579115.780    25579127.920    25579134.800   134419041.1450  104742103.1730
 100377947.9860
  24254311.840    24254315.580    24254316.740   127457280.7720   99317387.1330
  95179341.8690
  24913346.740    24913347.580    24913354.020   130920489.4740  102015957.4310
  97765322.3440
  21476918.880    21476916.520                   112861991.7980   87944409.8210

  23015253.860    23015250.220                   120945970.1740   94243601.8100

  22351925.520    22351922.900                   117460375.0100   91527687.9500

  24465158.560    24465156.120                   128565273.8200  100180724.1140

 23  2 11  0  7  0.0000000  0 10G01G03G04G08G09G14G17G19G21G31
  20636106.560    20636107.580    20636107.940   108443645.1830   84501639.9910
  80980774.4740
  20360141.460    20360141.620    20360142.860   106993428.0240   83371624.2900
  79897934.7560
  21764669.960    21764669.420    21764674.420   114374425.2760   89123034.3100
  85409611.6210
  25600141.460    25600153.780    25600161.280   134529525.2620  104828193.2870
 100460450.6500
  24232707.100    24232710.640    24232712.260   127343748.4240   99228920.6940
  95094561.6200
  24927847.460    24927848.440    24927855.200   130996692.3460  102075336.0940
  97822226.8650
  21469929.280    21469926.880                   112825261.1150   87915788.5060

  22997880.780    22997876.840                   120854673.0920   94172461.2540

  22362562.720    22362559.980                   117516273.6530   91571245.3110

  24459607.480    24459604.600                   128536103.1840  100157993.7670

 23  2 11  0  7 30.0000000  0 10G01G03G04G08G09G14G17G19G21G31
  20643827.380    20643828.400    20643828.820   108484218.3420   84533255.4320
  81011072.6010
  20361935.260    20361935.400    20361936.680   107002854.5570   83378969.6490
  79904974.0620
  21748636.140    21748635.520    21748640.600   114290166.9700   89057378.5220
  85346691.4980
  25621155.760    25621168.320    25621175.960   134639949.5570  104914236.7890
 100542908.7180
  24211118.640    24211122.100    24211123.700   127230301.5670   99140520.8750
  95009845.1960
  24942366.380    24942367.700    24942374.420   131072990.3850  102134788.9210
  97879202.4770
  21463035.620    21463033.160                   112789034.6450   87887560.0860

  22980577.420    22980573.360                   120763742.7250   94101606.4200

  22373242.360    22373239.520                   117572395.5930   91614976.6720

  24454149.040    24454146.060                   128507418.6540  100135642.2410

 23  2 11  0  8  0.0000000  0 10G01G03G04G08G09G14G17G19G21G31
  20651615.320    20651616.320    20651616.640   108525143.9990   84565145.5460
  81041633.9640
  20363794.860    20363794.960    20363796.300   107012626.9420   83386584.4940
  79912271.6240
  21732673.540    21732672.880    21732677.960   114206283.0170   88992014.4280
  85284050.9160
  25642157.940    25642170.800    25642178.360   134750310.8110  105000231.2270
 100625319.7770
  24189546.400    24189549.840    24189551.800   127116941.3190   99052188.5400
  94925193.4360
  24956902.940    24956904.100    24956910.480   131149379.3280  102194312.6330
  97936245.9990
  21456237.960    21456235.500                   112753312.7740   87859724.8640

  22963344.000    22963340.020                   120673180.9490   94031038.8170

  22383964.280    22383961.480                   117628739.5310   91658881.0110

  24448783.180    24448780.160                   128479221.0820  100113670.1400

 23  2 11  0  8 30.0000000  0 10G01G03G04G08G09G14G17G19G21G31
  20659470.820    20659471.840    20659472.080   108566424.8590   84597312.4350
  81072460.5620
  20365720.620    20365720.720    20365722.060   107022746.8440   83394470.1370
  79919828.6940
  21716783.140    21716782.400    21716787.560   114122778.4860   88926945.9940
  85221693.6730
  25663148.040    25663161.440    25663168.760   134860609.9360  105086177.3270
 100707684.5310
  24167991.980    24167995.220    24167997.540   127003672.7790   98963927.6490
  94840610.1740
  24971456.560    24971457.680    24971464.280   131225858.9700  102253906.9670
  97993357.1940
  21449537.080    21449534.680                   112718099.5250   87832285.9730

  22946181.740    22946178.020                   120582993.1260   93960762.5960

  22394728.900    22394726.100                   117685308.0090   91702960.3240

  24443510.840    24443508.340                   128451515.2580  100092081.2140

 23  2 11  0  9  0.0000000  0 10G01G03G04G08G09G14G17G19G21G31
  20667393.540    20667394.500    20667394.720   108608058.7160   84629754.3850
  81103550.7640
  20367711.920    20367712.020    20367713.340   107033211.1180   83402624.1120
  79927642.9240
  21700964.900    21700964.240    21700969.480   114039653.5360   88862173.3370
  85159619.8860
  25684125.600    25684139.440    25684146.140   134970842.5390  105172071.7280
 100789999.7400
  24146454.840    24146458.200    24146460.280   126890496.1500   98875738.3970
  94756095.5450
  24986026.560    24986028.000    24986034.520   131302424.0200  102313567.8360
  98050532.1900
  21442932.920    21442930.500                   112683394.3280   87805242.9620

  22929090.720    22929087.040                   120493179.8750   93890778.2580

  22405535.880    22405533.020                   117742098.7860   91747212.8570

  24438332.060    24438329.720                   128424300.7880  100070875.1600

 23  2 11  0  9 30.0000000  0 10G01G03G04G08G09G14G17G19G21G31
  20675383.560    20675384.540    20675384.720   108650046.4880   84662472.1200
  81134905.2540
  20369768.700    20369768.800    20369770.100   107044019.5960   83411046.3000
  79935714.1900
  21685219.540    21685218.980    21685223.980   113956911.4500   88797699.0190
  85097831.9920
  25705090.120    25705104.480    25705110.460   135081007.5050  105257913.5190
 100872264.5690
  24124935.840    24124939.100    24124941.100   126777414.6990   98787623.2780
  94671651.9520
  25000612.260    25000613.360    25000620.880   131379072.4270  102373293.6550
  98107769.3960
  21436425.800    21436423.380                   112649199.3260   87778597.5020

  22912071.780    22912068.320                   120403745.1620   93821088.9080

  22416385.360    22416382.480                   117799112.9330   91791639.4330

  24433247.280    24433245.120                   128397580.5250  100050054.2150

 23  2 11  0 10  0.0000000  0 10G01G03G04G08G09G14G17G19G21G31
  20683440.520    20683441.500    20683441.580   108692386.1100   84695464.0200
  81166522.4980
  20371890.400    20371890.480    20371891.840   107055169.2830   83419734.3690
  79944040.2560
  21669547.100    21669546.560    21669551.500   113874552.5260   88733523.2650
  85036330.2400
  25726040.960    25726055.880    25726061.440   135191100.6560  105343699.4660
 100954475.8650
  24103435.180    24103438.240    24103440.400   126664428.8830   98699582.6590
  94587279.7760
  25015213.260    25015214.220    25015221.600   131455799.1430  102433080.5940
  98165065.0960
  21430015.720    21430013.340                   112615514.2410   87752349.3780

  22895125.180    22895121.640                   120314690.0750   93751695.3530

  22427277.000    22427274.140                   117856348.7430   91836238.7450

  24428256.480    24428254.500                   128371354.1800  100029618.1590

 23  2 11  0 10 30.0000000  0 10G01G03G04G08G09G14G17G19G21G31
  20691565.020    20691566.000    20691566.020   108735080.6080   84728732.4570
  81198404.7420
  20374077.420    20374077.520    20374078.880   107066662.1560   83428689.8560
  79952622.5980
  21653948.620    21653948.140    21653952.900   113792582.1180   88669650.2470
  84975118.6010
  25746978.100    25746993.580    25746999.060   135301122.7350  105429430.1080
 101036634.2750
  24081953.760    24081956.800    24081958.560   126551544.0780   98611620.7660
  94502982.9840
  25029829.020    25029830.020    25029836.920   131532604.1920  102492928.4900
  98222419.3320
  21423703.480    21423701.140                   112582343.1700   87726501.7920

  22878251.980    22878248.280                   120226020.5030   93682602.2110

  22438211.220    22438208.440                   117913808.8540   91881012.8450

  24423360.640    24423358.980                   128345626.4960  100009570.6260

 23  2 11  0 11  0.0000000  0 10G01G03G04G08G09G14G17G19G21G31
  20699756.780    20699757.800    20699757.780   108778128.6560   84762276.3730
  81230551.0010
  20376329.300    20376329.380    20376330.760   107078495.9210   83437910.9750
  79961459.5040
  21638424.220    21638423.860    21638428.440   113711001.2840   88606080.7900
  84914197.8820
  25767900.920    25767916.920    25767922.640   135411070.9410  105515103.3350
 101118737.5900
  24060491.740    24060494.620    24060496.560   126438761.3930   98523738.4430
  94418762.4910
  25044458.520    25044459.720    25044466.940   131609483.4120  102552834.1330
  98279828.8440
  21417489.200    21417486.900                   112549686.6530   87701055.1590

  22861452.500    22861448.620                   120137738.1010   93613810.7450

  22449187.960    22449185.400                   117971492.4900   91925961.1080

  24418560.000    24418558.080                   128320398.0850   99989912.1750

 23  2 11  0 11 30.0000000  0 10G01G03G04G08G09G14G17G19G21G31
  20708016.300    20708017.300    20708017.320   108821532.4790   84796097.5260
  81262962.9390
  20378646.300    20378646.340    20378647.760   107090671.8330   83447398.7010
  79970551.9090
  21622974.860    21622974.580    21622979.120   113629814.6330   88542818.4850
  84853571.5100
  25788809.820    25788825.740    25788831.900
 101200785.8660
  24039050.040    24039052.780    24039055.060   126326085.5130   98435939.3180
  94334621.7360
  25059102.340    25059103.580    25059111.040   131686435.9280  102612796.9550
  98337293.1250
  21411373.380    21411371.040                   112517547.6390   87676011.7700

  22844727.540    22844723.780                   120049847.8460   93545324.8600

  22460207.660    22460205.020                   118029401.2680   91971084.8130

  24413855.040    24413852.200                   128295673.0140   99970645.8940

 23  2 11  0 12  0.0000000  0 10G01G03G04G08G09G14G17G19G21G31
  20716343.280    20716344.160    20716344.340   108865290.7360   84830194.8620
  81295639.5420
  20381027.960    20381028.020    20381029.440   107103187.5330   83457151.1990
  79979898.0490
  21607600.740    21607600.520    21607604.920   113549023.1220   88479864.0890
  84793240.2100
                                  25809726.140
 101282908.5391
  24017628.780    24017631.440    24017633.920   126213517.4880   98348224.2540
  94250561.5130
  25073759.560    25073760.620    25073767.640   131763457.5170  102672813.5770
  98394808.9950
  21405356.060    21405353.700                   112485926.4560   87651371.8850

  22828077.460    22828073.620                   119962351.2450   93477145.7010

  22471270.020    22471267.400                   118087534.1070   92016383.1150

  24409246.200    24409242.640                   128271451.6940   99951772.1770

 23  2 11  0 12 30.0000000  0  9G01G03G04G09G14G17G19G21G31
  20724738.900    20724739.700    20724740.020   108909409.9200   84864573.4320
  81328585.6680
  20383475.320    20383475.420    20383476.780   107116048.5230   83467172.7470
  79989502.0370
  21592303.540    21592303.140    21592307.700   113468635.5570   88417224.4510
  84733210.5620
  23996229.920    23996232.400    23996235.080   126101066.2710   98260600.1890
  94166588.5000
  25088430.000    25088431.400    25088438.060   131840551.7140  102732886.7670
  98452379.1000
  21399438.820    21399436.400                   112454831.1270   87627141.7560

  22811504.160    22811500.260                   119875258.1810   93409280.9780

  22482376.160    22482373.580                   118145897.4800   92061861.0410

  24404734.180    24404730.800                   128247742.3320   99933297.3720

 23  2 11  0 13  0.0000000  0  9G01G03G04G09G14G17G19G21G31
  20733199.460    20733200.280    20733200.580   108953870.4130   84899217.9580
  81361786.6740
  20385984.500    20385984.580    20385985.920   107129234.2970   83477447.3810
  79999348.5590
  21577079.880    21577079.500    21577084.100   113388634.7310   88354886.1770
  84673469.7330
  23974850.020    23974852.180    23974855.220   125988714.7740   98173053.8020
  94082689.9550
  25103110.300    25103111.460    25103118.340   131917696.1190  102792999.0270
  98509986.6790
  21393618.200    21393615.780                   112424243.5120   87603307.2490

  22795004.480    22795000.580                   119788551.8570   93341717.6180

  22493522.560    22493519.940                   118204471.8810   92107503.4050

  24400316.200    24400313.600                   128224527.3960   99915207.7710

 23  2 11  0 13 30.0000000  0  9G01G03G04G09G14G17G19G21G31
  20741727.380    20741728.220    20741728.480   108998684.8690   84934138.3010
  81395251.9950
  20388557.700    20388557.740    20388559.160   107142756.4470   83487984.1170
  80009446.2620
  21561932.640    21561932.200    21561936.820   113309035.5580   88292860.8760
  84614028.8210
  23953491.860    23953494.000    23953496.860   125876478.0000   98085596.8150
  93998877.0780
  25117801.980    25117803.360    25117809.540   131994900.3360  102853157.9440
  98567638.8900
  21387896.800    21387894.400                   112394177.3710   87579879.0910

  22778581.300    22778577.500                   119702247.8940   93274467.8080

  22504711.500    22504708.860                   118263269.5770   92153319.7770

  24395994.940    24395993.020                   128201820.7870   99897514.4160

 23  2 11  0 14  0.0000000  0  9G01G03G04G09G14G17G19G21G31
  20750322.800    20750323.660    20750323.860   109043854.1380   84969335.1170
  81428982.2790
  20391194.860    20391194.920    20391196.320   107156614.9130   83498782.9220
  80019795.1190
  21546862.440    21546862.000    21546866.640   113229841.2770   88231151.0740
  84554890.2660
  23932156.280    23932158.260    23932160.860   125764359.3300   97998231.8410
  93915152.3540
  25132504.300    25132505.600    25132512.360   132072162.2530  102913361.7590
  98625334.2540
  21382275.060    21382272.640                   112364634.7620   87556858.8720

  22762235.520    22762231.660                   119616350.0250   93207534.4280

  22515943.240    22515940.520                   118322292.1600   92199311.3770

  24391771.740    24391769.400                   128179625.6090   99880219.4840

 23  2 11  0 14 30.0000000  0  9G01G03G04G09G14G17G19G21G31
  20758985.240    20758986.080    20758986.240   109089375.4470   85004806.2560
  81462975.4550
  20393895.320    20393895.440    20393896.820   107170805.9340   83509840.8600
  80030392.3120
  21531869.220    21531868.740    21531873.320   113151051.3870   88169756.3880
  84496053.7000
  23910842.960    23910844.960    23910847.220   125652358.4590   97910958.6640
  93831515.5880
  25147216.600    25147218.380    25147225.080   132149476.3760  102973606.2850
  98683068.5320
  21376752.660    21376750.240                   112335614.5170   87534245.6860

  22745967.020    22745962.900                   119530858.4040   93140917.5930

  22527217.140    22527214.420                   118381536.6150   92245475.8650

  24387645.360    24387643.220                   128157940.4210   99863321.9310

 23  2 11  0 15  0.0000000  0  9G01G03G04G09G14G17G19G21G31
  20767714.420    20767715.220    20767715.440   109135247.4950   85040550.6970
  81497230.5480
  20396658.660    20396658.780    20396660.180   107185327.2790   83521156.1940
  80041236.1730
  21516953.160    21516952.600    21516957.280   113072666.8890   88108677.5890
  84437519.8510
  23889552.520    23889554.260    23889556.620   125540476.5500   97823778.1520
  93747967.6670
  25161938.400    25161940.180    25161947.300   132226838.5100  103033888.2190
  98740838.6090
  21371329.700    21371327.280                   112307116.6930   87512039.5880

  22729776.180    22729772.040                   119445774.6370   93074618.5790

  22538532.920    22538530.160                   118441001.4400   92291812.0620

  24383615.980    24383613.900                   128136765.8990   99846822.3220

 23  2 11  0 15 30.0000000  0  9G01G03G04G09G14G17G19G21G31
  20776511.480    20776512.240    20776512.500   109181476.1200   85076572.9970
  81531751.9140
  20399485.740    20399485.880    20399487.340   107200183.8610   83532732.7470
  80052330.3680
  21502115.800    21502115.240    21502120.080   112994695.9860   88047921.0610
  84379294.8550
  23868285.980    23868288.260    23868290.380   125428721.9640   97736696.8940
  93664514.8250
  25176670.040    25176671.640    25176678.640   132304251.5270  103094209.8100
  98798646.7550
  21366007.480    21366005.120                   112279148.3620   87490246.0790

  22713664.560    22713660.540                   119361107.7310   93008644.3830

  22549891.760    22549889.040                   118500692.8860   92338324.8530

  24379685.060    24379682.820                   128116109.3400   99830726.3280

 23  2 11  0 16  0.0000000  0  9G01G03G04G09G14G17G19G21G31
  20785375.100    20785375.840    20785376.140   109228054.7030   85112867.9900
  81566534.6140
  20402375.220    20402375.360    20402376.840   107215368.0730   83544564.6020
  80063669.2300
  21487356.320    21487355.760    21487360.600   112917134.3510   87987483.4520
  84321375.4790
  23847043.040    23847045.520    23847047.400   125317090.5120   97649711.5500
  93581153.9250
  25191409.260    25191411.180    25191417.440   132381706.1000  103154563.7070
  98856485.8650
  21360785.120    21360782.780                   112251704.6070   87468861.3320

  22697631.560    22697627.760                   119276854.2370   92942992.3370

  22561292.560    22561289.860                   118560604.2530   92385009.0140

  24375851.680    24375849.260                   128095966.1560   99815030.3630

 23  2 11  0 16 30.0000000  0  9G01G03G04G09G14G17G19G21G31
  20794306.080    20794306.800    20794307.160   109274987.3250   85149438.8540
  81601581.6840
  20405327.640    20405327.780    20405329.240   107230883.1290   83556654.2560
  80075255.1500
  21472675.880    21472675.380    21472680.220   112839988.3600   87927369.7170
  84263766.4950
  23825824.800    23825827.460    23825828.980   125205588.8540   97562827.3240
  93497889.9120
  25206156.840    25206158.980    25206164.640   132459203.2850  103214950.8080
  98914356.9140
  21355663.460    21355661.120                   112224789.9860   87447888.8910

  22681678.440    22681674.780                   119193020.8260   92877667.6310

  22572735.960    22572733.200                   118620739.4890   92431867.6230

  24372117.200    24372114.260                   128076341.8170   99799738.6540

 23  2 11  0 17  0.0000000  0  9G01G03G04G09G14G17G19G21G31
  20803303.800    20803304.580    20803304.900   109322270.7200   85186283.0420
  81636890.6970
  20408342.180    20408342.340    20408343.820   107246724.7720   83568998.3960
  80087084.9530
  21458074.360    21458073.920    21458078.720   112763257.0570   87867579.1120
  84206467.1670
  23804631.020    23804633.820    23804635.180   125094216.1420   97476043.5990
  93414722.2150
  25220911.280    25220913.320    25220919.440   132536781.0801  103275422.4911
  98972255.1930
  21350642.140    21350639.760                   112198402.7580   87427327.4140

  22665805.300    22665801.720                   119109607.2040   92812670.0260

  22584221.260    22584218.500                   118681095.2850   92478898.0800

  24368481.160    24368478.500                   128057234.8870   99784850.1700

 23  2 11  0 17 30.0000000  0  9G01G03G04G09G14G17G19G21G31
  20812368.840    20812369.680    20812370.020   109369907.9270   85223402.9290
  81672463.9170
  20411419.300    20411419.460    20411420.960   107262895.1630   83581598.7000
  80099160.2380
  21443552.780    21443552.400    21443557.080   112686945.7650   87808115.7900
  84149481.4900
  23783463.020    23783465.740    23783467.060   124982978.0220   97389364.7140
  93331655.0130
  25235673.800                    25235681.840   132614353.9001
  99030180.9830
  21345722.120    21345719.720                   112172547.6900   87407180.5990

  22650013.340    22650009.700                   119026619.4530   92748004.2580

  22595749.060    22595746.280                   118741674.5090   92526102.6440

  24364944.520    24364942.460                   128038649.9570   99770368.4390

 23  2 11  0 18  0.0000000  0  9G01G03G04G09G14G17G19G21G31
  20821500.500    20821501.300    20821501.700   109417895.0400   85260795.4760
  81708298.4370
  20414558.080    20414558.260    20414559.680   107279389.4760   83594451.4080
  80111477.4200
  21429110.780    21429110.420    21429115.100   112611052.8890   87748978.5090
  84092808.2640
  23762320.300    23762323.020    23762324.320   124871873.0820   97302789.6240
  93248687.2420
  25250440.640    25250441.560    25250449.520
  99088129.2700
  21340902.780    21340900.360                   112147221.8030   87387446.1340

  22634302.240    22634298.460                   118944056.7680   92683669.7040

  22607318.860    22607316.200                   118802473.9900   92573478.8300

  24361507.020    24361504.920                   128020584.7240   99756291.6510

 23  2 11  0 18 30.0000000  0  9G01G03G04G09G14G17G19G21G31
  20830699.400    20830700.300    20830700.580   109466235.7750   85298463.5690
  81744397.0240
  20417759.040    20417759.200    20417760.560   107296210.4950   83607558.6980
  80124038.5730
  21414749.580    21414749.140    21414753.860   112535584.3500   87690171.8860
  84036451.9250
  23741204.120    23741206.680    23741208.160   124760907.5380   97216323.1300
  93165823.5760
  25265213.220    25265215.840    25265222.660
  99146100.7460
  21336185.080    21336182.640                   112122430.2010   87368128.0000

  22618673.420    22618669.560                   118861925.8580   92619671.6090

  22618931.240    22618928.580                   118863497.2030   92621029.3680

  24358169.640    24358167.340                   128003044.6930   99742624.0960

 23  2 11  0 19  0.0000000  0  9G01G03G04G09G14G17G19G21G31
  20839965.280    20839966.320    20839966.500   109514928.4790   85336405.9180
  81780758.4450
  20421021.660    20421021.820    20421023.200   107313355.7080   83620918.6040
  80136841.8200
  21400469.240    21400468.780    21400473.520   112460540.8720   87631696.4730
  83980412.9880
  23720114.640    23720117.120    23720118.400   124650082.3180   97129965.9850
  93083064.6760
  25279992.280    25279995.960    25280001.120   132847246.2711  103517348.7961
  99204092.0940
  21331569.000    21331566.560                   112098172.6020   87349225.9740

  22603126.820    22603122.940                   118780228.1260   92556011.0470

  22630585.900    22630583.200                   118924742.5080   92668752.9530

  24354931.820    24354929.760                   127986029.7210   99729365.7150

 23  2 11  0 19 30.0000000  0  9G01G03G04G09G14G17G19G21G31
  20849298.220    20849299.280    20849299.420   109563973.3330   85374622.6810
  81817382.8380
  20424345.840    20424346.000    20424347.360   107330824.3710   83634530.5490
  80149886.5990
  21386270.260    21386269.820    21386274.500   112385924.8440   87573554.1410
  83924693.2600
  23699052.540    23699054.720    23699056.000   124539400.0910   97043720.2590
  93000412.5460
  25294775.720    25294773.000    25294784.100
  99262101.3460
  21327054.760    21327052.300                   112074449.9820   87330740.8050

  22587663.080    22587659.380                   118698966.7090   92492690.4850

  22642282.820    22642280.140                   118986210.1140   92716649.7620

  24351793.900    24351792.200                   127969541.3400   99716517.6470

 23  2 11  0 20  0.0000000  0  9G01G03G04G09G14G17G19G21G31
  20858698.280    20858699.300    20858699.400   109613370.8740   85413114.2630
  81854270.6040
  20427731.480    20427731.660    20427733.020   107348616.1000   83648394.2360
  80163172.6300
  21372153.160    21372152.600    21372157.360   112311739.0750   87515747.0700
  83869294.8170
  23678018.200    23678020.200    23678021.260   124428863.9700   96957588.3640
  92917869.5130
  25309560.500    25309563.220    25309570.920
  99320126.9520
  21322642.700    21322640.280                   112051264.4610   87312674.1590

  22572283.140    22572279.360                   118618144.8810   92429712.4530

  22654022.080    22654019.540                   119047900.6390   92764720.2770

  24348756.620    24348754.840                   127953581.5350   99704081.4780

 23  2 11  0 20 30.0000000  0  9G01G03G04G09G14G17G19G21G31
  20868164.400    20868165.360    20868165.340   109663115.4890   85451876.2910
  81891417.5430
  20431177.380    20431177.580    20431178.960   107366724.4530   83662504.6410
  80176695.1060
  21358117.320    21358116.760    21358121.440   112237980.2330   87458272.6760
  83814215.1920
  23657010.960    23657012.800    23657014.020   124318470.9220   96871567.9670
  92835433.3130
                                  25324360.580
  99378162.6060
  21318331.980    21318329.600                   112028611.4640   87295022.4670

  22556986.380    22556982.340                   118537759.8570   92367074.7660

  22665802.780    22665800.320                   119109808.4220   92812960.0850

  24345819.260    24345817.500                   127938146.9780   99692054.6100

 23  2 11  0 21  0.0000000  0  9G01G03G04G09G14G17G19G21G31
  20877697.660    20877698.640    20877698.540   109713213.0720   85490913.3540
  81928828.0680
  20434684.460    20434684.700    20434686.100   107385154.4300   83676865.6620
  80190457.7490
  21344164.280    21344163.680    21344168.420   112164656.4310   87401137.2690
  83759460.4420
  23636032.680    23636034.200    23636035.620   124208229.3350   96785665.5710
  92753110.2360
  25339145.120                    25339153.880
  99436210.6630
  21314123.940    21314121.600                   112006498.0380   87277791.2160

  22541774.520    22541770.480                   118457820.6860   92304784.5130

  22677625.900    22677623.520                   119171939.3430   92861373.7650

  24342983.600    24342981.480                   127923244.6860   99680442.4830

 23  2 11  0 21 30.0000000  0  9G01G03G04G09G14G17G19G21G31
  20887298.340    20887299.340    20887299.400   109763665.1360   85530226.6300
  81966503.2890
  20438252.900    20438253.140    20438254.580   107403906.7250   83691477.8420
  80204461.0920
  21330294.720    21330294.100    21330298.960   112091771.4960   87344343.8400
  83705033.4100
  23615083.820    23615085.360    23615087.000   124098143.3550   96699884.4470
  92670903.3460
  25353939.220    25353943.460    25353949.020
  99494270.3130
  21310019.120    21310016.740                   111984927.0580   87260982.6540

  22526648.280    22526644.340                   118378332.0890   92242845.3610

  22689491.740    22689489.400                   119234294.9580   92909962.5230

  24340249.740    24340247.440                   127908877.6370   99669247.3900

 23  2 11  0 22  0.0000000  0  9G01G03G04G09G14G17G19G21G31
  20896964.660    20896965.600    20896965.800   109814461.7980   85569808.4260
  82004435.8360
  20441880.620    20441880.880    20441882.340   107422970.5220   83706332.7460
  80218697.0420
  21316507.160    21316506.600    21316511.460   112019317.7080   87287886.3690
  83650928.3380
  23594163.200    23594164.680    23594166.700   123988205.6300   96614218.8230
  92588807.1460
  25368736.420    25368738.840    25368745.400
  99552332.1090
  21306015.780    21306013.360                   111963889.3730   87244589.6480

  22511606.560    22511602.680                   118299286.9490   92181251.7640

  22701398.520    22701396.160                   119296865.6240   92958718.8640

  24337616.120    24337613.420                   127895037.4370   99658462.7860

 23  2 11  0 22 30.0000000  0 10G01G03G04G06G09G14G17G19G21G31
  20906698.480    20906699.420    20906699.660   109865613.4310   85609666.8270
  82042633.4660
  20445569.440    20445569.680    20445571.160   107442355.3620   83721437.8230
  80233172.7390
  21302804.080    21302803.480    21302808.380   111947307.7150   87231774.7110
  83597154.6670
  24492095.760    24492096.180    24492100.040   128706832.2731  100291035.6191
  96112261.3411
  23573273.320    23573274.700    23573276.920   123878429.1240   96528678.8170
  92506831.3500
  25383534.400    25383534.720    25383543.840
  99610401.7580
  21302116.220    21302113.800                   111943397.0460   87228621.5910

  22496651.700    22496648.020                   118220698.5510   92120014.0790

  22713348.200    22713345.860                   119359661.6930   93007650.8350

  24335085.180    24335082.540                   127881736.0560   99648098.0860

 23  2 11  0 23  0.0000000  0 10G01G03G04G06G09G14G17G19G21G31
  20916499.060    20916499.960    20916500.280   109917115.6320   85649798.3980
  82081092.8960
  20449318.360    20449318.580    20449320.040   107462056.0380   83736789.0010
  80247884.2880
  21289185.060    21289184.480    21289189.340   111875739.3660   87176007.1930
  83543710.8030
  24474118.180    24474119.380    24474121.820   128612359.0640  100217420.1920
  96041713.2040
  23552413.820    23552415.180    23552417.700   123768812.0350   96443263.0360
  92424974.6080
  25398332.520    25398335.440    25398343.020   133469138.7691  104001927.9411
  99668474.0550
  21298319.740    21298317.360                   111923446.4490   87213075.6690

  22481783.520    22481779.920                   118142565.6480   92059131.3170

  22725340.040    22725337.600                   119422679.0800   93056755.2840

  24332656.020    24332653.480                   127868970.3900   99638150.8530

 23  2 11  0 23 30.0000000  0 10G01G03G04G06G09G14G17G19G21G31
  20926366.080    20926366.920    20926367.320   109968966.8590   85690201.9370
  82119812.9450
  20453126.900    20453127.120    20453128.560   107482070.0960   83752384.3690
  80262829.8510
  21275650.220    21275649.600    21275654.400   111804613.2600   87120584.2790
  83490597.1760
  24456137.240    24456138.280    24456141.100   128517868.8620  100143791.4760
  95971152.3710
  23531584.780    23531586.320    23531588.800   123659355.3480   96357972.2220
  92343237.6060
  25413131.240    25413134.060    25413142.140
  99726545.7740
  21294626.300    21294623.960                   111904037.1720   87197951.5490

  22467002.260    22466998.540                   118064889.7180   91998604.6060

  22737373.680    22737371.200                   119485916.0040   93106030.7820

  24330328.540    24330326.420                   127856740.5410   99628621.1310

 23  2 11  0 24  0.0000000  0 10G01G03G04G06G09G14G17G19G21G31
  20936299.620    20936300.420    20936300.900   110021167.8170   85730877.9920
  82158794.1680
  20456995.080    20456995.260    20456996.740   107502397.4610   83768223.8760
  80278009.3770
  21262200.120    21262199.400    21262204.260   111733932.3680   87065508.2740
  83437816.0100
  24438153.460    24438154.660    24438157.300   128423363.7700  100070151.1610
  95900580.4060
  23510786.960    23510788.600    23510790.760   123550062.4290   96272809.0410
  92261622.9370
                                  25427940.780
  99784700.5521
  21291036.260    21291033.940                   111885171.3930   87183250.9350

  22452308.500    22452304.820                   117987674.2900   91938436.7680

  22749449.080    22749446.720                   119549372.5560   93155477.4220

  24328103.680    24328101.560                   127845048.4780   99619510.4550

 23  2 11  0 24 30.0000000  0  9G01G03G04G06G09G17G19G21G31
  20946300.540    20946301.200    20946301.820   110073722.8040   85771829.9220
  82198039.7610
  20460923.540    20460923.700    20460925.140   107523041.6100   83784310.2220
  80293425.4600
  21248835.980    21248835.180    21248840.060   111663703.2040   87010784.2810
  83385372.1920
  24420168.060    24420169.060    24420171.880   128328849.4430   99996503.6290
  95830001.5330
  23490021.560    23490023.260    23490025.060   123440940.1670   96187778.8370
  92180135.6750
  21287550.640    21287548.300                   111866854.1990   87168977.7860

  22437703.940    22437700.120                   117910926.7460   91878633.4850

  22761567.300    22761565.020                   119613054.2850   93205099.5220

  24325981.740    24325980.100                   127833900.0050   99610823.3490

 23  2 11  0 25  0.0000000  0  9G01G03G04G06G09G17G19G21G31
  20956366.820    20956367.440    20956367.980   110126621.3260   85813049.5410
  82237541.8900
  20464910.140    20464910.260    20464911.720   107543991.2380   83800634.6110
  80309069.6620
  21235556.180    21235555.400    21235560.240   111593917.4970   86956405.8260
  83333259.5160
  24402179.000    24402180.180    24402182.440   128234316.7050   99922841.7590
  95759408.9270
  23469287.180    23469288.920    23469290.560   123331980.6820   96102875.4650
  92098769.9710
  21284167.540    21284165.160                   111849075.9990   87155124.6380

  22423187.020    22423183.040                   117834639.3930   91819188.8090

  22773726.320    22773724.060                   119676950.3660   93254888.6430

  24323961.980    24323960.280                   127823286.1760   99602552.8450

 23  2 11  0 25 30.0000000  0  9G01G03G04G06G09G17G19G21G31
  20966499.740    20966500.400    20966500.880   110179870.3090   85854542.2340
  82277305.7240
  20468956.020    20468956.100    20468957.640   107565252.4520   83817201.7890
  80324946.5430
  21222362.460    21222361.740    21222366.520   111524584.2990   86902379.9800
  83281484.7480
  24384188.100    24384189.640    24384191.720   128139773.8320   99849171.9960
  95688808.7260
  23448585.460    23448587.220    23448588.980   123223193.5600   96018106.4120
  92017532.9780
  21280888.600    21280886.140                   111831845.0950   87141697.9520

  22408759.580    22408755.360                   117758822.2030   91760110.4890

  22785927.340    22785925.100                   119741067.3720   93304849.9300

  24322045.740    24322043.780                   127813215.0180   99594705.2030

 23  2 11  0 26  0.0000000  0  9G01G03G04G06G09G17G19G21G31
  20976699.040    20976699.740    20976700.200   110233468.1000   85896306.7280
  82317330.0280
  20473060.720    20473060.780    20473062.300   107586822.7960   83834009.8510
  80341054.2680
  21209254.980    21209254.280    21209258.920   111455704.2180   86848707.2080
  83230048.3500
  24366195.120    24366196.900    24366198.640   128045220.5960   99775494.1830
  95618200.8120
  23427916.800    23427918.420    23427920.180   123114579.6390   95933472.3020
  91936425.3230
  21277713.720    21277711.200                   111815160.8650   87128697.2430

  22394421.780    22394417.760                   117683476.3380   91701399.4480

  22798170.200    22798167.940                   119805403.7750   93354982.1560

  24320232.980    24320231.760

 23  2 11  0 26 30.0000000  0  9G01G03G04G06G09G17G19G21G31
  20986964.700    20986965.420    20986965.880   110287414.5100   85938342.8820
  82357614.6680
  20477224.080    20477224.120    20477225.580   107608701.3060   83851058.0350
  80357392.1120
  21196234.120    21196233.440    21196237.960   111387279.2050   86795389.0370
  83178951.7750
  24348200.460    24348202.280    24348203.920   127950658.2010   99701809.2140
  95547586.0560
  23407281.760    23407283.240    23407284.900   123006141.4140   95848975.0910
  91855448.8600
  21274643.000    21274640.440                   111799024.0720   87116123.1140

  22380174.080    22380170.200                   117608604.7080   91643057.9300

  22810454.940    22810452.620                   119869960.0440   93405285.7190

  24318522.740    24318519.460                   127794699.7921   99580273.3511

 23  2 11  0 27  0.0000000  0  9G01G03G04G06G09G17G19G21G31
  20997296.280    20997297.100    20997297.480   110341707.3900   85980648.9990
  82398158.0240
  20481445.520    20481445.540    20481446.960   107630885.0380   83868344.0660
  80373957.8940
  21183299.880    21183299.200    21183303.640   111319309.3180   86742425.5050
  83128195.0510
  24330203.800    24330205.800    24330207.640   127856085.9600   99628116.6040
  95476963.9850
  23386680.140    23386681.640    23386683.140   122897879.3910   95764615.1790
  91774603.9570
  21271676.300    21271673.780                   111783433.8380   87103974.8720

  22366016.820    22366012.960                   117534208.3060   91585086.7180

  22822781.020    22822778.700                   119934733.5800   93455758.5780

  24316917.060    24316913.480                   127786258.0920   99573695.4430

 23  2 11  0 27 30.0000000  0  9G01G03G04G06G09G17G19G21G31
  21007694.380    21007695.200    21007695.560   110396349.6530   86023227.3700
  82438962.2960
  20485725.400    20485725.460    20485726.900   107653376.1250   83885869.5840
  80390753.1780
  21170453.160    21170452.440    21170456.980   111251799.5750   86689820.5330
  83077781.9580
  24312206.160    24312208.160    24312209.840   127761508.1780   99554419.6740
  95406337.7720
  23366112.940    23366114.460    23366116.120   122789799.0610   95680396.8490
  91693894.7500
  21268814.320    21268811.860                   111768393.8840   87092255.4190

  22351951.160    22351947.320                   117460292.7610   91527490.1940

  22835149.080    22835146.700                   119999727.8160   93506403.4070

  24315415.200    24315411.500                   127778363.4710   99567543.7710

 23  2 11  0 28  0.0000000  0  9G01G03G04G06G09G17G19G21G31
  21018158.540    21018159.380    21018159.720   110451339.0350   86066076.2170
  82480025.7650
  20490063.220    20490063.320    20490064.700   107676171.5650   83903632.2610
  80407775.7410
  21157694.000    21157693.220    21157697.980   111184749.9150   86637574.0630
  83027712.4330
  24294207.540    24294209.240    24294211.220   127666924.1610   99480717.8510
  95335706.8900
  23345580.520    23345582.060    23345583.880   122681900.8700   95596320.4430
  91613321.5580
  21266056.800    21266054.480                   111753903.1000   87080963.8910

  22337977.220    22337973.360                   117386859.0720   91470269.1450

  22847558.680    22847556.040                   120064940.0320   93557218.0910

  24314016.740    24314013.600                   127771015.0260   99561817.7290

 23  2 11  0 28 30.0000000  0  9G01G03G04G06G09G17G19G21G31
  21028689.000    21028689.880    21028690.200   110506676.8710   86109196.5960
  82521349.4630
  20494459.060    20494459.160    20494460.520   107699271.9020   83921632.5230
  80425025.9970
  21145023.040    21145022.220    21145027.180   111118163.8260   86585688.8190
  82977989.0800
  24276208.260    24276209.580    24276211.800   127572336.6360   99407013.3150
  95265073.3440
  23325083.600    23325085.100    23325086.780   122574188.7710   95512389.0350
  91532887.3140
  21263404.120    21263401.820                   111739963.2730   87070101.6790

  22324095.720    22324091.760                   117313911.0810   91413426.5640

  22860009.980    22860007.200                   120130371.8710   93608203.9160

  24312722.580    24312719.520                   127764215.3570   99556519.3080

 23  2 11  0 29  0.0000000  0  9G01G03G04G06G09G17G19G21G31
  21039285.580    21039286.460    21039286.900   110562362.2720   86152587.8090
  82562932.7130
  20498912.600    20498912.720    20498914.040   107722675.5650   83939869.1420
  80442502.7570
  21132440.560    21132439.800    21132444.760   111052042.5810   86534165.8020
  82928612.8690
  24258208.240    24258209.720    24258211.720   127477746.2210   99333306.5160
  95194437.6760
  23304622.300    23304623.900    23304625.480   122466664.5340   95428604.0220
  91452593.3760
  21260856.420    21260854.100                   111726575.0690   87059669.3080

  22310306.980    22310303.000                   117241450.9130   91356964.1220

  22872502.860    22872500.080                   120196022.5200   93659360.2510

  24311533.220    24311530.020                   127757965.1780   99551649.0470

 23  2 11  0 29 30.0000000  0  9G01G03G04G06G09G17G19G21G31
  21049948.080    21049948.980    21049949.460   110618393.9480   86196248.8420
  82604774.5240
  20503423.460    20503423.600    20503424.960   107746380.4340   83958340.4640
  80460204.4400
  21119946.700    21119946.000    21119950.880   110986386.9720   86483005.6140
  82879584.3570
  24240207.780    24240209.300    24240211.360   127383153.1790   99259597.6680
  95123800.0280
  23284196.900    23284198.600    23284200.180   122359329.5410   95344966.4860
  91372440.7350
  21258413.580    21258411.220                   111713737.9970   87049666.3960

  22296611.500    22296607.380                   117169480.4250   91300883.2240

  22885037.120    22885034.480                   120261890.6420   93710686.0200

  24310448.040    24310445.080                   127752264.1370   99547206.7430

 23  2 11  0 30  0.0000000  0  9G01G03G04G06G09G17G19G21G31
  21060676.100    21060677.040    21060677.460   110674770.0770   86240178.2700
  82646873.5630
  20507991.200    20507991.320    20507992.780   107770384.0090   83977044.5490
  80478129.1860
  21107541.520    21107540.880    21107545.560   110921197.3690   86432208.5470
  82830903.8370
  24222206.680    24222208.340    24222210.540   127288557.2040   99185886.5640
  95053160.2160
  23263807.840    23263809.460    23263811.080   122252184.6040   95261477.0190
  91292430.0330
  21256075.520    21256073.140                   111701451.4980   87040092.4840

  22283009.380    22283005.260                   117098000.8180   91245184.8230

  22897612.440    22897609.800                   120327974.4130   93762179.8450

  24309467.360    24309464.900                   127747111.6850   99543191.8370

 23  2 11  0 30 30.0000000  0  9G01G03G04G06G09G17G19G21G31
  21071469.980    21071470.900    21071471.420   110731492.5060   86284377.5450
  82689231.2020
  20512615.960    20512616.080    20512617.480   107794687.3760   83995982.2370
  80496277.8060
  21095225.780    21095225.200    21095229.700   110856477.6680   86381777.6420
  82782574.2240
  24204205.680    24204207.680    24204209.660   127193961.5650   99112175.7420
  94982520.7120
  23243455.840    23243457.300    23243458.860   122145234.2120   95178139.1270
  91212564.5690
  21253842.660    21253840.300                   111689717.6560   87030949.2260

  22269501.460    22269497.580                   117027016.6130   91189872.4700

  22910229.240    22910226.540                   120394275.8060   93813843.2470

  24308591.780    24308589.180                   127742510.8940   99539606.8050

 23  2 11  0 31  0.0000000  0  9G01G03G04G06G09G17G19G21G31
  21082330.060    21082331.020    21082331.440   110788562.5200   86328847.6630
  82731848.3950
  20517297.880    20517298.040    20517299.360   107819291.1840   84015154.0340
