     2.11           OBSERVATION DATA    M (MIXED)           RINEX VERSION / TYPE
NetR9 5.50          Receiver Operator   20230402 184940 UTC PGM / RUN BY / DATE
Map of observations from RINEX 3 to RINEX 2.11              COMMENT
 G: C1C->C1 C2W->P2 C5X->C5 L1C->L1 L2W->L2 L5X->L5         COMMENT
BADJ                                                        MARKER NAME
Area de Geodesia    Instituto Geografico Nacional           OBSERVER / AGENCY
5811R52252          TRIMBLE NETR9       5.50                REC # / TYPE / VERS
5814338184          TRM159900.00    SCIS                    ANT # / TYPE
  4934001.4533  -604880.2623  3983295.1750                  APPROX POSITION XYZ
        0.0771        0.0000        0.0000                  ANTENNA: DELTA H/E/N
     6    C1    P2    C5    L1    L2    L5                  # / TYPES OF OBSERV
    30.000                                                  INTERVAL
  2022    05    02    00    00   00.0000000     GPS         TIME OF FIRST OBS
  2022    05    02    23    59   30.0000000     GPS         TIME OF LAST OBS
    31                                                      # OF SATELLITES
   G01   917   889   917   914   888   917                  PRN / # OF OBS
   G02  1125  1082        1116  1081                        PRN / # OF OBS
   G03   863   831   863   852   827   863                  PRN / # OF OBS
   G04  1014   904  1014   999   901  1014                  PRN / # OF OBS
   G05   974   964         965   959                        PRN / # OF OBS
   G06   986   983   986   971   970   986                  PRN / # OF OBS
   G07  1052  1018        1033  1004                        PRN / # OF OBS
   G08   857   848   856   851   842   856                  PRN / # OF OBS
   G09   806   806   806   802   802   806                  PRN / # OF OBS
   G10  1123  1110  1123  1121  1109  1123                  PRN / # OF OBS
   G11  1089  1059  1089  1080  1053  1089                  PRN / # OF OBS
   G12   816   814         815   814                        PRN / # OF OBS
   G13   928   878         917   878                        PRN / # OF OBS
   G14  1098  1047  1098  1088  1043  1098                  PRN / # OF OBS
   G15   846   838         841   834                        PRN / # OF OBS
   G16   814   747         798   747                        PRN / # OF OBS
   G17  1100  1092        1090  1082                        PRN / # OF OBS
   G18  1070  1031  1069  1059  1026  1069                  PRN / # OF OBS
   G19  1088  1062        1077  1056                        PRN / # OF OBS
   G20   800   770         798   769                        PRN / # OF OBS
   G21   949   894         941   891                        PRN / # OF OBS
   G22  1109   978        1094   975                        PRN / # OF OBS
   G23  1117  1064  1117  1105  1061  1117                  PRN / # OF OBS
   G24   909   902   909   904   897   909                  PRN / # OF OBS
   G25   896   880   896   891   876   896                  PRN / # OF OBS
   G26   857   844   857   851   839   857                  PRN / # OF OBS
   G27   907   902   907   905   901   907                  PRN / # OF OBS
   G29   920   806         906   799                        PRN / # OF OBS
   G30   939   915   938   921   904   938                  PRN / # OF OBS
   G31   999   987         993   984                        PRN / # OF OBS
   G32  1113  1096  1113  1111  1094  1113                  PRN / # OF OBS
                                                            END OF HEADER
 22  5  2  0  0  0.0000000  0 11G02G04G05G06G07G09G11G13G20G29G30
  21718418.172    21718420.699                   114131312.7850   88933402.9100

  25388038.938    25388045.488    25388050.148   133415042.3301  103959800.1041
  99628520.0970
  23359962.695    23359968.484                   122757605.1520   95655213.2510

  21536896.031    21536903.992    21536904.809   113177227.1200   88190116.7120
  84515521.3910
  20984712.984    20984717.332                   110275532.8070   85929112.2280

  22419184.406    22419191.004    22419191.629   117813826.3390   91803189.6880
  87978087.1750
  20768404.477    20768409.152    20768412.930   109138966.0100   85043281.0450
  81499813.4340
  23721344.508    23721349.867                   124656575.4860   97134992.5160

  21158623.422    21158627.410                   111189576.2030   86641145.5660

  25398163.109                                   133468193.0781

  21199382.930    21199389.973    21199389.961   111403649.5440   86808108.3450
  83191099.5880
 22  5  2  0  0 30.0000000  0 11G02G04G05G06G07G09G11G13G20G29G30
  21722638.289    21722640.570                   114153488.1990   88950682.4430

  25411146.992    25411153.465    25411157.285   133536470.1841  104054419.1691
  99719196.7580
  23348139.109    23348145.980                   122695477.0340   95606801.7910

  21558411.375    21558419.367    21558420.188   113290290.9370   88278218.3650
  84599952.1310
  20990514.563    20990518.613                   110306017.5680   85952866.5950

  22439488.375    22439494.848    22439495.949   117920526.3540   91886332.5470
  88057765.7410
  20773571.953    20773577.035    20773580.582   109166122.6230   85064442.0370
  81520092.7170
  23709772.586    23709779.160                   124595769.2290   97087611.0510

  21151124.109    21151128.598                   111150168.5490   86610438.3250

  25401683.984                                   133486690.6781

  21194408.891    21194415.965    21194416.219   111377511.3220   86787740.9180
  83171580.8130
 22  5  2  0  1  0.0000000  0 11G02G04G05G06G07G09G11G13G20G29G30
  21726957.109    21726959.840                   114176186.1530   88968369.1580

  25434241.070    25434249.926    25434252.930   133657842.8210  104148995.2610
  99809832.1420
  23336328.617    23336334.527                   122633410.1440   95558438.0730

  21580000.695    21580008.379    21580009.188   113403742.2970   88366621.9940
  84684672.2750
  20996411.641    20996416.434                   110337011.1600   85977017.4520

  22459813.469    22459820.379    22459821.168   118027335.0870   91969560.1210
  88137525.4710
  20778854.633    20778859.480    20778862.770   109193881.2440   85086072.1270
  81540821.5540
  23698236.453    23698241.680                   124535139.3490   97040367.1050

  21143670.859    21143675.051                   111111000.2960   86579917.6230

  25405303.852                                   133505712.9351

  21189523.664    21189530.668    21189530.746   111351838.3080   86767735.9990
  83152409.4290
 22  5  2  0  1 30.0000000  0 11G02G04G05G06G07G09G11G13G20G29G30
  21731377.047    21731379.348                   114199411.2710   88986466.6460

  25457330.984    25457336.652    25457340.039   133779163.2111  104243530.7181
  99900428.5600
  23324530.688    23324536.613                   122571409.9530   95510126.2910

  21601663.250    21601671.527    21601672.508   113517582.9620   88455328.9710
  84769683.1250
  21002407.984    21002411.871                   110368517.5150   86001567.8610

  22480159.867    22480166.750    22480166.918   118134255.6580   92052874.8180
  88217368.7160
  20784252.508    20784257.285    20784260.559   109222246.4680   85108174.8950
  81562003.3790
  23686732.031    23686738.332                   124474690.8640   96993264.4570

  21136264.180    21136268.250                   111072077.5620   86549588.2350

  25409022.656                                   133525264.6780

  21184727.305    21184734.684    21184734.898   111326636.4380   86748098.1990
  83133589.8830
 22  5  2  0  2  0.0000000  0 11G02G04G05G06G07G09G11G13G20G29G30
  21735897.391    21735899.574                   114223165.4250   89004976.3710

  25480406.773    25480413.887    25480416.672   133900432.7571  104338034.4281
  99990987.0070
  23312746.406    23312751.355                   122509479.4740   95461868.8260

  21623400.906    21623408.855    21623409.645   113631812.1090   88544338.6800
  84854984.0770
  21008500.531    21008505.168                   110400537.6460   86026518.6190

  22500527.492    22500534.809    22500534.660   118241288.5370   92136277.0260
  88297295.8540
  20789765.938    20789770.617    20789774.117   109251220.1660   85130751.7950
  81583639.5690
  23675263.641    23675270.551                   124414426.1520   96946305.0230

  21128904.477    21128908.895                   111033404.0950   86519453.0790

  25412844.984                                   133545346.7440

  21180022.039    21180029.199    21180029.137   111301908.9380   86728830.0390
  83115124.5670
 22  5  2  0  2 30.0000000  0 11G02G04G05G06G07G09G11G13G20G29G30
  21740517.719    21740520.156                   114247446.5940   89023896.7520

  25503473.273                    25503483.223   134021648.5471
 100081505.3280
  23300973.836    23300979.773                   122447618.2660   95413665.3540

  21645211.180    21645218.844    21645219.906   113746424.8690   88633647.3050
  84940571.5250
  21014691.242    21014695.672                   110433069.2010   86051867.8720

  22520916.188    22520922.969    22520923.254   118348430.3230   92219764.0970
  88377304.2830
  20795394.766    20795399.465    20795402.957   109280800.2590   85153801.2110
  81605728.5980
  23663830.102    23663837.188                   124354343.5330   96899487.4670

  21121592.664    21121596.676                   110994979.4400   86489511.8020

  25416766.633                                   133565956.8870

  21175406.695    21175413.691    21175413.715   111277655.0510   86709930.9290
  83097012.9250
 22  5  2  0  3  0.0000000  0 11G02G04G05G06G07G09G11G13G20G29G30
  21745237.594    21745240.199                   114272250.8050   89043224.6960

  25526527.688                    25526539.613   134142805.9801
 100171979.9950
  23289214.898    23289220.852                   122385823.1940   95365513.4140

  21667092.273    21667100.707    21667101.566   113861414.3010   88723249.4440
  85026440.2420
  21020978.594    21020982.531                   110466107.4330   86077611.9530

  22541323.859    22541330.816    22541331.266   118455675.4280   92303331.6970
  88457389.8870
  20801137.773    20801143.074    20801146.387   109310982.5590   85177319.8870
  81628267.3210
  23652432.117    23652437.750                   124294439.5900   96852809.1480

  21114327.398    21114331.859                   110956801.2360   86459762.5690

  25420789.531                                   133587091.2921

  21170880.852    21170887.891    21170887.941   111253871.9060   86691398.6250
  83079252.8010
 22  5  2  0  3 30.0000000  0 10G02G05G06G07G09G11G13G20G29G30
  21750057.719    21750060.582                   114297580.9480   89062962.4650

  23277468.906    23277474.898                   122324098.4970   95317416.3030

  21689045.844    21689053.969    21689055.219   113976780.5530   88813145.1970
  85112590.3430
  21027362.383    21027366.430                   110499654.7170   86103752.7020

  22561751.953    22561758.992    22561759.730   118563025.4380   92386981.0330
  88537553.8260
  20806996.820    20807001.480    20807005.020   109341769.8980   85201310.0130
  81651257.8550
  23641066.430    23641073.207                   124234717.3670   96806272.4200

  21107110.164    21107114.547                   110918874.2960   86430209.1170

  25424909.125

  21166445.922    21166452.492    21166452.598   111230563.6910   86673236.4060
  83061847.3460
 22  5  2  0  4  0.0000000  0 10G02G05G06G07G09G11G13G20G29G30
  21754978.703    21754981.180                   114323439.3480   89083111.8630

  23265737.586    23265742.621                   122262447.5450   95269376.6420

  21711070.875    21711078.961    21711080.258   114092523.1630   88903334.2330
  85199021.4880
  21033843.578    21033847.539                   110533712.4990   86130291.2370

  22582200.570    22582206.930    22582207.816   118670481.2870   92470712.8400
  88617796.7970
  20812970.727    20812975.867    20812979.375   109373164.5790   85225773.3920
  81674701.9350
  23629737.117    23629743.391                   124175179.8030   96759879.6180

  21099941.711    21099945.863                   110881202.8060   86400854.7220

  25429132.109                                   133630939.6771

  21162101.289    21162108.145    21162108.332   111207734.0870   86655447.1270
  83044799.2950
 22  5  2  0  4 30.0000000  0 10G02G05G06G07G09G11G13G20G29G30
  21759999.422    21760001.676                   114349823.5310   89103670.9550

  23254019.039    23254024.484                   122200869.6490   95221393.9260

  21733166.867    21733174.504    21733175.715   114208636.7970   88993812.3680
  85285729.6960
  21040420.625    21040425.055                   110568277.5910   86157225.1020

  22602668.445    22602674.727    22602675.035   118778039.1270   92554524.1260
  88698115.9460
  20819060.367    20819065.145    20819068.598   109405163.8810   85250707.9070
  81698597.5130
  23618442.148    23618448.680                   124115824.8150   96713629.0450

  21092821.398    21092825.777                   110843785.8510   86371698.6690

  25433453.398                                   133653653.0091

  21157847.961    21157854.809    21157854.762   111185381.7900   86638029.7730
  83028107.6740
 22  5  2  0  5  0.0000000  0 10G02G05G06G07G09G11G13G20G29G30
  21765120.031    21765122.551                   114376731.6570   89124638.3210

  23242314.805    23242320.453                   122139363.6130   95173467.1960

  21755332.055    21755340.266    21755341.168   114325117.0520   89084576.1800
  85372711.6830
  21047094.523    21047098.680                   110603347.6900   86184552.4510

  22623154.445    22623161.344    22623161.605   118885696.0160   92638412.5910
  88778509.0700
  20825263.922    20825269.094    20825272.543   109437766.1130   85276112.2410
  81722943.3280
  23607180.945    23607187.953                   124056651.3100   96667519.8980

  21085749.523    21085753.945                   110806623.7650   86342741.2040

  25437875.750    25437884.215                   133676889.0861  104163882.4111

  21153684.664    21153691.895    21153691.855   111163506.4570   86620984.0770
  83011772.2050
 22  5  2  0  5 30.0000000  0 10G02G05G06G07G09G11G13G20G29G30
  21770340.375    21770342.961                   114404166.0000   89146015.7250

  23230624.938    23230630.367                   122077932.6370   95125598.9660

  21777567.648    21777575.438    21777576.383   114441963.1260   89175625.0490
  85459966.8370
  21053863.945    21053868.590                   110638924.1240   86212274.3540

  22643659.000    22643666.359    22643667.090   118993452.6240   92722378.7700
  88858976.6520
  20831583.086    20831587.902    20831591.637   109470973.1680   85301987.8540
  81747740.7980
  23595957.070    23595962.426                   123997662.0230   96621554.2920

  21078727.148    21078731.359                   110769720.2430   86313985.2250

  25442397.992    25442405.293                   133700649.0051  104182396.7191

  21149613.680    21149620.594    21149620.523   111142111.3200   86604312.5570
  82995795.3480
 22  5  2  0  6  0.0000000  0 10G02G05G06G07G09G11G13G20G29G30
  21775660.813    21775663.590                   114432126.4890   89167803.1170

  23218949.766    23218955.172                   122016579.0640   95077791.0200

  21799872.008    21799879.641    21799880.531   114559172.4110   89266956.9280
  85547493.2150
  21060729.789    21060734.742                   110675006.1310   86240390.2070

  22664183.664    22664190.852    22664191.340   119101307.8830   92806421.8000
  88939517.8760
  20838017.711    20838022.496    20838025.770   109504785.0390   85328334.7760
  81772989.9140
  23584765.734    23584771.934                   123938857.0790   96575732.3250

  21071753.945    21071758.238                   110733077.3590   86285432.3250

  25447018.555    25447026.766                   133724933.3940  104201319.6101

  21145633.852    21145640.891    21145640.902   111121197.8570   86588016.3810
  82980178.1820
 22  5  2  0  6 30.0000000  0 10G02G05G06G07G09G11G13G20G29G30
  21781081.813    21781084.461                   114460612.9220   89190000.3150

  23207289.688    23207294.699                   121955303.1840   95030043.5980

  21822244.297    21822252.398    21822253.457   114676742.0140   89358569.5750
  85635288.6700
  21067692.820    21067697.145                   110711593.6890   86268899.9930

  22684726.375    22684733.559    22684734.449   119209260.3500   92890540.5790
  89020131.7020
  20844566.656    20844571.715    20844574.875   109539201.4350   85355152.7380
  81798690.4680
  23573610.883    23573617.590                   123880237.2650   96530054.6050

  21064831.086    21064835.238                   110696696.8100   86257083.8490

  25451737.500    25451746.695                   133749741.0210  104220650.3610

  21141746.078    21141753.086    21141753.020   111100767.1460   86572096.3640
  82964921.4980
 22  5  2  0  7  0.0000000  0 10G02G05G06G07G09G11G13G20G29G30
  21786602.711    21786605.414                   114489625.8490   89212607.7760

  23195643.766    23195649.023                   121894107.2090   94982358.4500

  21844685.273    21844693.188    21844694.137   114794669.5390   89450461.1190
  85723351.3920
  21074751.008    21074755.398                   110748686.0990   86297803.1780

  22705286.734    22705294.613    22705294.844   119317309.1600   92974734.4370
  89100817.4670
  20851231.148    20851236.004    20851239.320   109574222.6010   85382441.9560
  81824842.6310
  23562492.000    23562498.020                   123821803.4240   96484521.8180

  21057958.914    21057962.844                   110660580.6440   86228941.3880

  25456559.531                                   133775071.7891

  21137949.883    21137957.266    21137957.332   111080820.8070   86556553.7780
  82950026.5240
 22  5  2  0  7 30.0000000  0 10G02G05G06G07G09G11G13G20G29G30
  21792224.500    21792227.027                   114519168.2870   89235627.8570

  23184014.539    23184019.918                   121832995.7140   94934739.1460

  21867194.602    21867202.309    21867203.270   114912955.4600   89542631.9380
  85811681.7600
  21081906.125    21081910.461                   110786285.7720   86327101.6300

  22725867.867    22725874.516    22725874.836   119425456.3520   93059004.9610
  89181576.7260
  20858011.102    20858015.746    20858019.441   109609851.5760   85410204.7850
  81851448.6680
  23551407.688    23551414.848                   123763559.1670   96439136.7690

  21051137.391    21051141.238                   110624734.1060   86201009.0250

  25461480.195                                   133800928.5551

  21134247.797    21134254.641    21134254.664   111061363.3510   86541392.1470
  82935496.6380
 22  5  2  0  8  0.0000000  0 10G02G05G06G07G09G11G13G20G29G30
  21797946.867    21797949.152                   114549237.0070   89259058.0150

  23172401.570    23172407.020                   121771966.5060   94887183.9430

  21889769.938    21889778.367    21889779.684   115031593.7490   89635077.3360
  85900275.2460
  21089156.852    21089161.301                   110824388.7560   86356792.2730

  22746464.945    22746471.824    22746472.383   119533697.5060   93143348.6880
  89262406.1380
  20864906.070    20864910.941    20864914.336   109646084.9440   85438438.5720
  81878506.0460
  23540359.617    23540366.074                   123705501.9490   96393897.4410

  21044367.289    21044370.980                   110589156.1650   86173285.9510

  25466500.031                                   133827307.4691

  21130637.555    21130644.730    21130644.703   111042392.8060   86526609.9240
  82921330.3470
 22  5  2  0  8 30.0000000  0 10G02G05G06G07G09G11G13G20G29G30
  21803768.469    21803771.410                   114579831.9960   89282898.2570

  23160804.508    23160809.328                   121711021.8060   94839694.5990

  21912413.078    21912421.168    21912422.078   115150581.6650   89727795.1550
  85989129.8220
  21096503.117    21096507.672                   110862994.3390   86386874.5560

  22767081.258    22767086.766    22767087.191   119642031.4710   93227764.7350
  89343304.8260
  20871915.891    20871921.055    20871924.094   109682922.4930   85467143.1460
  81906014.6020
  23529347.313    23529353.703                   123647632.1250   96348804.1390

  21037648.352    21037652.176                   110553848.4620   86145773.4520

  25471618.164                                   133854208.1361

  21127120.516    21127127.492    21127127.574   111023910.3420   86512208.0290
  82907528.5370
 22  5  2  0  9  0.0000000  0 10G02G05G06G07G09G11G13G20G29G30
  21809690.734    21809693.969                   114610955.6180   89307150.4110

  23149222.563    23149228.820                   121650165.0010   94792273.7380

  21935122.156    21935130.258    21935131.133   115269919.0680   89820785.3030
  86078245.3670
  21103945.836    21103950.027                   110902104.6850   86417350.1530

  22787714.078    22787720.141    22787720.715   119750459.6140   93312254.1550
  89424273.8590
  20879041.117    20879046.352    20879049.664   109720366.6080   85496320.3770
  81933976.1140
  23518371.789    23518377.348                   123589953.0100   96303859.4340

  21030982.070    21030985.656                   110518815.6040   86118475.1200

  25476836.391                                   133881632.4221

  21123696.977    21123704.043    21123703.875   111005919.8300   86498189.4680
  82894094.0800
 22  5  2  0  9 30.0000000  0 10G02G05G06G07G09G11G13G20G29G30
  21815713.094    21815716.164                   114642603.7330   89331811.2740

  23137659.320    23137663.773                   121589393.5370   94744919.3810

  21957897.367    21957904.809    21957905.719   115389599.1030   89914042.4380
  86167616.7990
  21111483.344    21111487.691                   110941714.9930   86448215.3360

  22808363.508    22808370.480    22808371.184   119858976.7440   93396812.9460
  89505309.3680
  20886281.211    20886286.168    20886289.750   109758412.9910   85525966.9050
  81962387.3660
  23507431.625    23507436.520                   123532460.9620   96259060.5190

  21024367.195    21024371.078                   110484055.3400   86091389.2040

  25482154.203                                   133909575.6240

  21120366.516    21120373.703    21120373.543   110988418.3980   86484552.0110
  82881024.8500
 22  5  2  0 10  0.0000000  0 10G02G05G06G07G09G11G13G20G29G30
  21821837.430    21821839.820                   114674783.1090   89356886.1010

  23126112.180    23126118.035                   121528715.3310   94697637.7070

  21980737.148    21980744.902    21980745.980   115509625.6350   90007569.5740
  86257246.9630
  21119117.367    21119121.563                   110981830.9280   86479474.5040

  22829033.367    22829038.586    22829039.398   119967588.3800   93481445.3500
  89586415.4090
  20893636.844    20893641.914    20893645.621   109797067.9590   85556087.6540
  81991253.0960
  23496528.172    23496533.766                   123475163.1790   96214412.9660

  21017805.773    21017809.754                   110449576.4780   86064522.5590

  25487570.813    25487577.031                   133938043.8670  104367356.9411

  21117130.602    21117137.848    21117137.703   110971413.8980   86471301.7610
  82868326.7030
 22  5  2  0 10 30.0000000  0 10G02G05G06G07G09G11G13G20G29G30
  21828061.727    21828063.957                   114707490.7410   89382372.5630

  23114582.938    23114588.758                   121468129.6680   94650428.1230

  22003642.641    22003650.285    22003651.172   115629993.4300   90101362.6320
  86347131.9600
  21126846.656    21126850.977                   111022449.8360   86511125.6080

  22849717.844    22849724.172    22849725.070   120076290.9120   93566148.6010
  89667589.3470
  20901107.727    20901113.258    20901116.578   109836328.8080   85586680.5180
  82020571.2540
  23485661.523    23485666.930                   123418057.8830   96169915.4010

  21011297.938    21011302.320                   110415378.5310   86037874.8180

  25493086.844    25493095.336

  21113989.148    21113996.250    21113996.160   110954905.0190   86458437.7190
  82855998.6640
 22  5  2  0 11  0.0000000  0 10G02G05G06G07G09G11G13G20G29G30
  21834385.406    21834388.164                   114740724.6940   89408269.1410

  23103071.469    23103077.223                   121407635.5480   94603289.8980

  22026610.813    22026619.488    22026620.594   115750697.5320   90195417.7450
  86437268.1160
  21134671.297    21134675.547                   111063568.1180   86543165.8280

  22870419.125    22870426.805    22870426.707   120185081.0900   93650920.1380
  89748828.7180
  20908694.297    20908699.152    20908702.340   109876193.0630   85617743.5700
  82050339.9920
  23474830.195    23474836.027                   123361143.0120   96125566.1950

  21004843.719    21004847.953                   110381461.1520   86011445.6870

  25498704.414    25498711.223                   133996543.0491  104412940.7731

  21110941.641    21110948.750    21110948.793   110938890.7750   86445959.1030
  82844040.0020
 22  5  2  0 11 30.0000000  0 10G02G05G06G07G09G11G13G20G29G30
  21840808.328    21840811.012                   114774477.9690   89434570.3900

  23091576.984    23091582.020                   121347228.8450   94556219.7700

  22049642.727    22049650.992    22049652.027   115871728.5430   90289727.5900
  86527648.3730
  21142589.508    21142593.719                   111105178.2800   86575589.3350

  22891136.789    22891143.777    22891143.438   120293951.1290   93735753.9140
  89830127.7640
  20916393.516    20916398.363    20916401.910   109916653.6920   85649271.3310
  82080554.0980
  23464035.008    23464041.266                   123304412.9160   96081360.9880

  20998441.602    20998446.078                   110347819.4530   85985231.3930

  25504416.609                                   134026563.6901

  21107987.203    21107994.469    21107994.523   110923365.6920   86433861.6590
  82832446.6210
 22  5  2  0 12  0.0000000  0 10G02G05G06G07G09G11G13G20G29G30
  21847331.391    21847334.313                   114808757.0890   89461281.3910

  23080099.281    23080104.848                   121286916.3710   94509223.0850

  22072737.258    22072745.355    22072746.813   115993090.3190   90384295.1760
  86618275.6430
  21150602.523    21150606.672                   111147286.7680   86608401.1570

  22911869.461    22911877.172    22911877.125   120402906.6330   93820654.2790
  89911490.5980
  20924207.617    20924212.379    20924216.207   109957717.0440   85681268.7390
  82111218.2760
  23453275.977    23453281.738                   123247874.6240   96037305.2310

  20992094.297    20992098.504                   110314462.3360   85959238.8500

  25510228.117                                   134057102.5270

  21105127.531    21105134.793    21105134.656   110908337.5490   86422151.4370
  82821224.3310
 22  5  2  0 12 30.0000000  0 10G02G05G06G07G09G11G13G20G29G30
  21853954.891    21853957.902                   114843563.8160   89488403.5010

  23068640.203    23068645.996                   121226702.8320   94462303.4710

  22095894.711    22095902.629    22095903.660   116114782.1340   90479119.9340
  86709149.3530
  21158710.273    21158714.691                   111189894.4420   86641601.9380

  22932620.766    22932626.887    22932627.582   120511948.5070   93905621.9530
  89992917.9320
  20932136.656    20932141.664    20932145.176   109999384.7770   85713737.0980
  82142333.7960
  23442553.555    23442559.539                   123191530.5920   95993400.8500

  20985801.758    20985805.805                   110281393.8540   85933471.2100

  25516138.477                                   134088160.1070

  21102363.211    21102370.098    21102370.012   110893809.5400   86410830.9250
  82810375.5160
 22  5  2  0 13  0.0000000  0 10G02G05G06G07G09G11G13G20G29G30
  21860678.898    21860681.938                   114878898.4670   89515936.9850

  23057201.406    23057206.910                   121166588.9890   94415461.5540

  22119114.430    22119122.332    22119123.293   116236801.6470   90574200.0320
  86800267.7930
  21166913.234    21166917.543                   111233000.9930   86675191.4670

  22953386.695    22953393.453    22953393.852   120621076.1610   93990656.4590
  90074409.3330
  20940180.984    20940186.012    20940189.172   110041656.9630   85746676.4510
  82173900.6790
  23431868.570    23431875.438                   123135382.0100   95949648.7490

  20979564.281    20979568.695                   110248616.2870   85907930.2470

  25522147.727                                   134119736.4811

  21099693.961    21099701.105    21099700.910   110879783.2240   86399901.3520
  82799901.3380
 22  5  2  0 13 30.0000000  0 10G02G05G06G07G09G11G13G20G29G30
  21867503.492    21867506.070                   114914760.2460   89543881.2070

  23045781.203    23045786.797                   121106576.3570   94368698.5220

  22142395.203    22142403.750    22142404.793   116359145.4390   90669532.8220
  86891628.3590
  21175210.758    21175215.164                   111276604.9210   86709168.5600

  22974168.477    22974176.098    22974176.020   120730287.9510   94075756.5280
  90155963.5610
  20948339.789    20948344.840    20948348.035   110084532.5680   85780086.0040
  82205918.1570
  23421221.258    23421227.090                   123079428.5490   95906048.7050

  20973382.492    20973386.910                   110216131.1930   85882617.1980

  25528254.805                                   134151830.4551

  21097119.977    21097127.410    21097127.398   110866259.0690   86389363.0680
  82789802.1480
 22  5  2  0 14  0.0000000  0 10G02G05G06G07G09G11G13G20G29G30
  21874426.727    21874430.074                   114951146.1890   89572233.8830

  23034380.609    23034385.621                   121046664.0800   94322013.6630

  22165737.242    22165745.484    22165746.688   116481808.1990   90765114.1510
  86983227.1360
  21183603.008    21183606.684                   111320703.2170   86743530.8690

  22994966.297    22994973.387    22994973.938   120839580.3430   94160919.3920
  90237577.9710
  20956613.148    20956617.797    20956621.453   110128008.6400   85813963.4590
  82238384.0570
  23410611.563    23410616.613                   123023668.5050   95862599.4120

  20967256.438    20967260.625                   110183937.9320   85857531.5480

  25534458.766                                   134184438.9331

  21094642.234    21094649.098    21094649.113   110853235.6240   86379214.9430
  82780076.8810
 22  5  2  0 14 30.0000000  0 10G02G05G06G07G09G11G13G20G29G30
  21881451.953    21881454.375                   114988059.1690   89600997.2190

  23022999.836    23023004.840                   120986857.2530   94275410.9780

  22189139.992    22189148.199    22189149.285   116604790.1400   90860944.1990
  87075064.2650
  21192088.313    21192092.742                   111365297.5880   86778279.7360

  23015779.867    23015786.789    23015787.414   120948955.2220   94246146.5440
  90319253.9890
  20965000.906    20965005.758    20965009.461   110172087.7070   85848310.7780
  82271300.2300
  23400037.289    23400043.535                   122968105.0530   95819303.2400

  20961186.766    20961190.855                   110152041.5680   85832677.2530

  25540761.383                                   134217563.6190

  21092260.086    21092266.777    21092266.789   110840717.0360   86369460.2150
  82770728.5900
 22  5  2  0 15  0.0000000  0 10G02G05G06G07G09G11G13G20G29G30
  21888576.906    21888579.129                   115025500.0470   89630171.9180

  23011639.352    23011644.242                   120927157.5650   94228891.7900

  22212603.875    22212611.422    22212612.449   116728089.6240   90957021.6890
  87167138.5080
  21200668.875    21200673.262                   111410388.6430   86813415.6250

  23036609.516    23036615.551    23036616.316   121058412.6440   94331438.0150
  90400991.6430
  20973504.094    20973509.000    20973512.297   110216770.3970   85883128.4510
  82304667.1730
  23389502.297    23389507.379                   122912740.1090   95776161.8130

  20955174.594    20955178.336                   110120445.3210   85808056.8100

  25547165.195                                   134251205.0361

  21089973.969    21089981.066    21089981.078   110828705.4170   86360100.5310
  82761758.8940
 22  5  2  0 15 30.0000000  0 10G02G05G06G07G09G11G13G20G29G30
  21895801.531    21895804.691                   115063469.1000   89659758.1780

  23000299.563    23000304.965                   120867567.5440   94182458.0590

  22236125.984    22236134.645    22236135.551   116851704.4540   91053344.8840
  87259448.2400
  21209343.922    21209348.301                   111455976.0930   86848938.3170

  23057454.031    23057460.695    23057460.680   121167952.4950   94416793.7220
  90482790.8520
  20982121.242    20982126.660    20982129.848   110262056.8830   85918416.6130
  82338484.9850
  23379003.570    23379009.730                   122857574.8310   95733175.9280

  20949219.523    20949223.277                   110089151.7250   85783672.1850

  25553664.914                                   134285362.8841

  21087785.031    21087792.008    21087792.078   110817202.4490   86351137.1970
  82753169.0430
 22  5  2  0 16  0.0000000  0 11G02G05G06G07G09G11G13G14G20G29G30
  21903127.094    21903129.602                   115101963.0720   89689753.4820

  22988979.805    22988986.102                   120808086.1660   94136109.0110

  22259708.477    22259716.375    22259717.699   116975628.9690   91149909.4170
  87351989.2380
  21218112.695    21218116.879                   111502056.1600   86884844.8700

  23078313.742    23078320.301    23078321.008   121277570.7420   94502210.5130
  90564648.6120
  20990853.570    20990858.535    20990861.848   110307943.7800   85954172.6350
  82372751.1670
  23368544.156    23368549.848                   122802606.7510   95690343.7190

  25756813.383                    25756827.238   135352996.8711
 101075315.0711
  20943321.828    20943325.730                   110058160.0860   85759522.8640

  25560262.641

  21085692.156    21085699.535    21085699.672   110806206.3740   86342568.8410
  82744957.6960
 22  5  2  0 16 30.0000000  0 10G02G05G06G07G09G11G13G20G29G30
  21910551.945    21910554.422                   115140980.7210   89720156.8320

  22977681.695    22977687.969                   120748713.8750   94089844.9380

  22283349.234    22283356.949    22283358.168   117099859.2370   91246712.1910
  87444758.5540
  21226974.797    21226979.059                   111548626.8480   86921133.7200

  23099187.789    23099194.035    23099195.090   121387265.2870   94587686.7560
  90646563.3570
  20999699.602    20999704.449    20999708.063   110354429.3840   85990395.1880
  82407464.4350
  23358121.547    23358126.523                   122747835.6030   95647664.9590

  20937481.953    20937485.797                   110027471.1640   85735609.4300

  25566956.289                                   134355216.2161

  21083696.031    21083703.609    21083703.527   110795716.9820   86334395.3060
  82737124.7340
 22  5  2  0 17  0.0000000  0 11G02G05G06G07G09G11G13G14G20G29G30
  21918076.359    21918079.121                   115180523.1830   89750969.1230

  22966405.016    22966411.074                   120689454.1400   94043668.5820

  22307046.680    22307055.066    22307056.113   117224394.1160   91343752.3180
  87537755.3250
  21235930.352    21235934.676                   111595688.5650   86957805.1870

  23120076.953    23120082.973    23120084.254   121497036.8810   94673223.0340
  90728535.5990
  21008659.734    21008664.488    21008668.098   110401514.8250   86027085.1160
  82442625.6240
  23347735.523    23347741.984                   122693263.0070   95605140.9240

  25736071.000    25736080.488    25736086.031   135244001.2151  105384945.4041
 100993923.5551
  20931700.289    20931704.352                   109997088.7070   85711934.7930

  25573749.328                                   134390909.7230

  21081797.523    21081804.426    21081804.285   110785736.9950   86326618.7070
  82729672.1630
 22  5  2  0 17 30.0000000  0 11G02G05G06G07G09G11G13G14G20G29G30
  21925700.141    21925702.984                   115220587.6420   89782188.1670

  22955150.156    22955155.387                   120630306.1630   93997579.3020

  22330802.164    22330810.457    22330811.535   117349228.4090   91441025.7580
  87630975.7120
  21244978.813    21244983.203                   111643238.3170   86994856.9440

  23140979.672    23140986.301    23140986.828   121606882.1130   94758816.6940
  90810562.8540
  21017732.914    21017738.328    21017741.480   110449197.1240   86064240.1460
  82478232.5210
  23337388.375    23337394.703                   122638887.4880   95562770.4430

  25725650.813                    25725665.184
 100953032.6990
  20925976.711    20925980.766                   109967012.2610   85688498.6050

  25580639.305                                   134427111.6781

  21079994.813    21080001.879    21080001.734   110776265.0040   86319237.9510
  82722598.9440
 22  5  2  0 18  0.0000000  0 11G02G05G06G07G09G11G13G14G20G29G30
  21933424.211    21933426.875                   115261176.7750   89813816.0550

  22943916.109    22943921.949                   120571274.0260   93951580.3090

  22354614.313    22354622.547    22354623.457   117474362.0580   91538532.4580
  87724419.6380
  21254120.180    21254124.848                   111691277.8940   87032290.3880

  23161895.672    23161903.957    23161904.004   121716802.8560   94844469.1800
  90892646.4630
  21026920.781    21026925.711    21026928.980   110497478.3900   86101861.9020
  82514286.7060
  23327079.320    23327085.254                   122584712.1320   95520555.9440

  25715197.547    25715207.836    25715212.711   135134315.5331  105299475.5151
 100912015.8900
  20920312.922    20920316.816                   109937246.6970   85665304.6740

  25587624.656                                   134463824.1640

  21078289.805    21078296.789    21078296.727   110767304.7180   86312255.9270
  82715907.8300
 22  5  2  0 18 30.0000000  0 11G02G05G06G07G09G11G13G14G20G29G30
  21941247.586    21941249.871                   115302286.7930   89845849.8160

  22932704.227    22932710.074                   120512356.1130   93905670.3080

  22378481.836    22378490.438    22378491.828   117599789.0680   91636267.7520
  87818082.5980
  21263354.133    21263358.836                   111739803.1650   87070102.2850

  23182826.930    23182834.359    23182834.785   121826794.8540   94930177.2220
  90974783.3240
  21036221.992    21036226.555    21036230.047   110546354.7930   86139947.4050
  82550785.3170
  23316809.016    23316813.977                   122530734.4890   95478495.5010

  25704713.477                    25704727.563   135079218.8301
 100870872.3390
  20914707.477    20914711.367                   109907790.9440   85642352.1410

  25594705.969                                   134501042.5560

  21076681.641    21076688.582    21076688.641   110758853.8730   86305670.8630
  82709597.1490
 22  5  2  0 19  0.0000000  0 11G02G05G06G07G09G11G13G14G20G29G30
  21949169.031    21949172.121                   115343917.0760   89878288.9780

  22921515.266    22921520.621                   120453554.7270   93859851.0910

  22402405.594    22402413.730    22402415.121   117725506.5900   91734229.4030
  87911962.5190
  21272680.844    21272685.008                   111788812.8190   87108291.6260

  23203772.109    23203778.605    23203778.867   121936857.3410   95015940.1770
  91056972.8310
  21045635.172    21045640.688    21045644.254   110595825.6910   86178496.1470
  82587727.8630
  23306574.703    23306579.691                   122476954.9450   95436589.4140

  25694198.328                    25694211.375   135023954.8441
 100829603.8850
  20909161.352    20909165.703                   109878647.0790   85619642.6390

  25601885.250                                   134538766.1851

  21075170.266    21075177.555    21075177.543   110750913.4010   86299483.4960
  82703667.6040
 22  5  2  0 19 30.0000000  0 11G02G05G06G07G09G11G13G14G20G29G30
  21957190.570    21957193.285                   115386069.0490   89911134.6540

  22910349.203    22910353.492                   120394872.8100   93814124.9750

  22426384.273    22426392.090    22426393.398   117851513.8240   91832416.8220
  88006058.7780
  21282099.430    21282103.598                   111838308.1340   87146859.4050

  23224729.773    23224736.484    23224737.098   122046991.2590   95101758.8160
  91139215.7140
  21055163.188    21055168.324    21055171.492   110645892.4500   86217509.2010
  82625115.3730
  23296378.898    23296384.410                   122423375.9910   95394839.6570

  25683649.797    25683658.379    25683663.867   134968527.9641  105170282.7131
 100788213.7610
  20903675.570    20903679.840                   109849819.0900   85597179.2800

  25609161.266                                   134576996.0481

  21073757.203    21073764.266    21073764.250   110743486.2430   86293696.1220
  82698121.3740
 22  5  2  0 20  0.0000000  0 11G02G05G06G07G09G11G13G14G20G29G30
  21965310.930    21965313.828                   115428742.9390   89944387.0280

  22899205.039    22899210.109                   120336312.5370   93768493.6130

  22450417.398    22450425.500    22450426.512   117977807.9610   91930827.7870
  88100369.2830
  21291610.016    21291614.480                   111888288.2790   87185804.9740

  23245701.477    23245707.914    23245708.602   122157195.7910   95187632.4490
  91221511.2680
  21064803.289    21064808.645    21064812.113   110696554.3140   86256985.9630
  82662947.2650
  23286221.344    23286225.797                   122369998.2540   95353246.6330

  25673072.281    25673081.680    25673085.785   134912940.6350  105126968.0240
 100746703.9400
  20898250.609    20898254.578                   109821309.1740   85574963.7740

  25616530.789                                   134615731.2181

  21072441.555    21072448.684    21072448.738   110736573.2210   86288309.3640
  82692959.0670
 22  5  2  0 20 30.0000000  0 11G02G05G06G07G09G11G13G14G20G29G30
  21973531.188    21973533.973                   115471940.6150   89978047.5400

  22888084.883    22888090.633                   120277878.8340   93722960.9150

  22474505.156    22474512.941    22474513.863   118104389.1540   92029462.4310
  88194894.1450
  21301213.281    21301217.969                   111938755.0420   87225129.7290

  23266686.258    23266692.965    23266693.602   122267472.9720   95273562.6800
  91303861.0440
  21074557.961    21074563.266    21074566.477   110747813.5220   86296928.1930
  82701225.2290
  23276101.984    23276107.824                   122316824.7910   95311812.8300

  25662467.539    25662473.852    25662478.266   134857198.1370  105083532.4530
 100705078.2730
  20892886.375    20892890.738                   109793122.2250   85552999.9190

  25623998.250                                   134654973.5741

  21071224.797    21071231.766    21071231.676   110730178.3190   86283326.3390
  82688183.6670
 22  5  2  0 21  0.0000000  0 11G02G05G06G07G09G11G13G14G20G29G30
  21981851.125    21981853.957                   115515661.0370   90012115.3810

  22876989.547    22876994.992                   120219572.5500   93677527.5030

  22498646.086    22498654.621    22498655.406   118231254.0810   92128318.1750
  88289630.9030
  21310909.563    21310913.910                   111989707.3140   87264832.7970

  23287684.047    23287691.566    23287691.570   122377821.4410   95359548.4750
  91386264.0960
  21084425.773    21084430.973    21084434.398   110799668.9100   86337334.9740
  82739948.3960
  23266022.727    23266028.320                   122263856.0430   95270538.5230

  25651827.031                    25651840.988   134801302.2051
 100663337.9320
  20887585.031    20887588.664                   109765259.8020   85531288.9580

  25631562.664                                   134694721.8590

  21070106.266    21070113.594    21070113.402   110724301.8960   86278747.3210
  82683795.4380
 22  5  2  0 21 30.0000000  0 11G02G05G06G07G09G11G13G14G20G29G30
  21690477.664    21690480.316                   113984482.4350   88818989.1760

  22566125.313    22566130.672                   118585970.4260   92404590.8230

  22223049.586    22223057.359    22223058.660   116782980.9500   90999793.6040
  87208128.1800
  21020904.789    21020909.176                   110465721.9470   86077311.7330

  23008904.078    23008910.250    23008911.301   120912820.7720   94217989.4990
  90292270.0890
  20794614.258    20794619.117    20794622.695   109276698.1600   85150604.5090
  81602665.0280
  22956188.414    22956194.230                   120635667.4540   94001820.2250

  25341368.625    25341378.293    25341382.629   133169830.5000  103768706.8611
  99445031.3320
  20582551.336    20582555.430                   108162299.9390   84282229.3250

  25339430.297                                   133159552.7540

  20769294.211    20769301.016    20769300.934   109143521.3450   85046970.2790
  81503342.4550
 22  5  2  0 22  0.0000000  0 11G02G05G06G07G09G11G13G14G20G29G30
  21698995.445    21698997.781                   114029242.8250   88853867.3970

  22555078.461    22555084.160                   118527919.3660   92359356.2730

  22247296.055    22247304.527    22247305.270   116910400.0220   91099081.1510
  87303278.7260
  21030783.352    21030788.000                   110517636.0450   86117764.2810

  23029928.375    23029934.746    23029935.793   121023304.3970   94304080.6310
  90374774.0760
  20804707.344    20804712.516    20804715.781   109329738.6480   85191934.7510
  81642273.1740
  22946187.438    22946191.746                   120583104.7270   93960862.3370

  25330673.648    25330683.215    25330688.332   133113630.4610  103724914.6800
  99403063.8860
  20577373.039    20577377.203                   108135087.9480   84261025.1770

  25347184.852                                   133200304.4421

  20768372.711    20768379.594    20768379.641   109138679.4670   85043197.4060
  81499726.7890
 22  5  2  0 22 30.0000000  0 11G02G05G06G07G09G11G13G14G20G29G30
  21707611.930    21707614.297                   114074522.6250   88889150.3290

  22544056.031    22544062.180                   118469999.0320   92314223.6010

  22271595.258    22271603.715    22271604.652   117038092.3520   91198581.6040
  87398633.3370
  21040754.188    21040758.469                   110570030.3410   86158591.0040

  23050965.250    23050972.289    23050973.234   121133854.7130   94390223.7130
  90457327.8430
  20814912.609    20814918.531    20814921.680   109383370.8840   85233726.1020
  81682323.2120
  22936223.055    22936228.047                   120530746.2340   93920063.5780

  25319951.594    25319960.582    25319965.703   133057282.6970  103681007.4230
  99360986.1490
  20572257.070    20572261.523                   108108205.0040   84240077.4400

  25355033.938                                   133241556.7180

  20767550.102    20767556.949    20767556.988   109134356.5600   85039828.9200
  81496498.6430
 22  5  2  0 23  0.0000000  0 10G02G05G06G07G09G11G13G20G29G30
  21716325.906    21716329.230                   114120319.0130   88924835.8080

  22533059.445    22533064.953                   118412209.5620   92269192.8870

  22295945.148    22295953.688    22295954.734   117166053.0630   91298291.2000
  87494188.3540
  21050815.156    21050819.477                   110622901.4660   86199789.2800

  23072015.898    23072021.402    23072022.578   121244468.7640   94476416.4520
  90539929.2150
  20825231.406    20825236.188    20825239.383   109437592.0040   85275976.3110
  81722812.9910
  22926297.711    22926303.441                   120478590.1960   93879422.5600

  20567204.703    20567208.504                   108081650.7660   84219385.8330

  25362979.969                                   133283306.3480

  20766825.781    20766832.805    20766832.840   109130551.3250   85036863.8160
  81493657.0920
 22  5  2  0 23 30.0000000  0 11G02G05G06G07G09G11G13G14G20G29G30
  21725140.055    21725142.848                   114166635.1060   88960926.2550

  22522089.172    22522093.938                   118354555.7000   92224267.8270

  22320346.898    22320355.121    22320355.980   117294283.0630   91398210.6230
  87589944.4610
  21060966.961    21060971.816                   110676252.2290   86241361.2990

  23093075.375    23093083.668    23093084.543   121355149.5660   94562661.1900
  90622580.4230
  20835661.641    20835666.586    20835670.031   109492404.8940   85318687.6360
  81763744.6860
  22916412.656    22916417.746                   120426641.1150   93838942.8340

  25298422.234    25298432.797    25298436.109   132944151.3821  103592852.3931
  99276505.2381
  20562215.063    20562219.086                   108055431.4150   84198955.1830

  25371018.508                                   133325556.1751

  20766201.063    20766207.945    20766208.020   109127268.3110   85034305.6340
  81491205.5050
 22  5  2  0 24  0.0000000  0 11G02G05G06G07G09G11G13G14G20G29G30
  21734052.047    21734055.070                   114213469.7580   88997420.7750

  22511143.695    22511148.777                   118297038.5330   92179449.2740

  22344798.477    22344807.039    22344807.859   117422778.6120   91498336.9780
  87685898.8570
  21071210.492    21071214.855                   110730080.5210   86283305.4300

  23114151.555    23114157.727    23114158.531   121465895.3160   94648956.5620
  90705280.1450
  20846204.117    20846209.563    20846213.078   109547807.7280   85361858.6690
  81805116.9180
  22906566.156    22906571.570                   120374898.2360   93798623.7810

  25287619.023    25287628.266    25287632.020
  99234107.5200
  20557289.367    20557293.551                   108029547.9230   84178786.2260

  25379153.906                                   133368303.9881

  20765675.445    20765682.801    20765682.648   109124507.3570   85032154.2530
  81489143.7690
 22  5  2  0 24 30.0000000  0 11G02G05G06G07G09G11G13G14G20G29G30
  21743063.055    21743065.496                   114260819.6770   89034316.7930

  22500224.594    22500229.625                   118239657.5630   92134736.8670

  22369300.367    22369308.453    22369309.309   117551534.4390   91598666.1460
  87782047.6390
  21081543.828    21081548.293                   110784382.6320   86325618.7590

  23135236.422    23135243.465    23135244.836   121576702.8630   94735300.0860
  90788026.0390
  20856858.891    20856864.434    20856867.789   109603797.2780   85405486.8760
  81846927.2800
  22896758.336    22896763.980                   120323359.9460   93758464.1430

  25276788.680    25276797.840    25276801.301   132830459.2731  103504261.4701
  99191605.5980
  20552428.109    20552431.891                   108003999.8780   84158878.6730

  25387384.508                                   133411546.2380

  20765249.273    20765256.375    20765256.289   109122266.8880   85030408.4430
  81487470.7080
 22  5  2  0 25  0.0000000  0 11G02G05G06G07G09G11G13G14G20G29G30
  21752171.625    21752174.504                   114308687.3150   89071616.2370

  22489331.984    22489337.285                   118182417.8500   92090134.5120

  22393851.352    22393859.922    22393860.180   117680550.8260   91699198.3360
  87878390.9730
  21091967.758    21091972.223                   110839160.7160   86368302.9830

  23156335.383    23156341.988    23156342.848   121687574.4120   94821693.5020
  90870819.7070
  20867625.508    20867630.574    20867634.234   109660375.5730   85449573.8450
  81889177.2940
  22886989.797    22886995.852                   120272029.8860   93718466.7540

  25265933.211    25265941.047    25265945.246   132773409.4971  103459807.0901
  99149003.6280
  20547630.773    20547635.023                   107978792.5480   84139236.6000

  25395704.906                                   133455284.7250

  20764922.516    20764929.785    20764929.699   109120550.5880   85029071.0760
  81486189.0700
 22  5  2  0 25 30.0000000  0 11G02G05G06G07G09G11G13G14G20G29G30
  21761379.500    21761382.391                   114357075.0630   89109320.9700

  22478466.672    22478472.457                   118125324.1670   92045645.9610

  22418452.266    22418460.203    22418461.008   117809827.8840   91799933.6460
  87974928.9720
  21102482.938    21102487.125                   110894416.9250   86411359.7680

  23177447.094    23177452.238    23177453.422   121798512.2060   94908138.5010
  90953662.8340
  20878504.727    20878509.551    20878512.926   109717544.7510   85494121.2360
  81931868.5300
  22877262.711    22877268.438                   120220911.3390   93678634.1690

  25255052.984    25255059.984    25255064.125   132716231.1340  103415252.6070
  99106305.5690
  20542900.461    20542904.117                   107953931.4390   84119864.3190

  25404124.047                                   133499521.5721

  20764696.148    20764703.746    20764703.504   109119362.2220   85028145.0840
  81485301.6580
 22  5  2  0 26  0.0000000  0 11G02G05G06G07G09G11G13G14G20G29G30
  21770685.328    21770687.883                   114405975.8070   89147425.4270

  22467629.531    22467634.660                   118068372.0970   92001267.7360

  22443100.867    22443108.813    22443110.059   117939356.4090   91900864.9030
  88071654.7430
  21113087.297    21113091.535                   110950143.4680   86454783.0390

  23198567.578    23198574.516    23198575.574   121909509.0390   94994629.5290
  91036550.0620
  20889493.992    20889499.508    20889503.051   109775297.3920   85539123.2850
  81974995.4990
  22867573.906    22867580.176                   120169998.2930   93638961.7110

  25244145.836    25244154.203    25244158.305   132658920.2540  103370594.9511
  99063508.6730
  20538234.227    20538238.344                   107929411.3740   84100757.7870

  25412632.594

  20764569.438    20764577.000    20764576.797   109118696.0660   85027626.0210
  81484804.2240
 22  5  2  0 26 30.0000000  0 11G02G05G06G07G09G11G13G14G20G29G30
  21780089.070    21780091.254                   114455390.6220   89185930.4620

  22456819.719    22456824.598                   118011564.8570   91957002.3800

  22467796.617    22467804.852    22467805.980   118069135.3930   92001991.3260
  88168567.5580
  21123781.164    21123785.449                   111006340.8400   86498573.1970

  23219700.898    23219708.289    23219708.867   122020566.0260   95081167.4330
  91119482.2300
  20900595.680    20900600.605    20900604.246   109833634.4240   85584580.6960
  82018558.8480
  22857924.766    22857930.902                   120119293.2570   93599451.3560

  25233216.156    25233224.398    25233227.383   132601481.4371  103325837.5801
  99020616.2060
  20533633.758    20533637.910                   107905236.8230   84081920.4880

  25421240.383                                   133589467.5481

  20764543.117    20764549.984    20764549.820   109118554.6630   85027515.8460
  81484698.6460
 22  5  2  0 27  0.0000000  0 11G02G05G06G07G09G11G13G14G20G29G30
  21789589.883    21789592.664                   114505320.7520   89224837.0330

  22446038.250    22446043.086                   117954906.4890   91912853.0260

  22492539.141    22492548.719    22492549.996   118199163.9280   92103312.2010
  88265666.7160
  21134564.953    21134569.160                   111063009.9470   86542730.9450

  23240845.469    23240853.184    23240853.766   122131684.3060   95167753.0840
  91202460.1320
  20911808.352    20911813.402    20911816.941   109892556.7140   85630494.1580
  82062559.2540
  22848316.508    22848321.605                   120068798.4380   93560104.8100

  25222263.055    25222270.066    25222274.504   132543919.2950  103280984.0870
  98977631.5780
  20529099.563    20529104.230                   107881411.8750   84063355.5990

  25429939.453                                   133635177.9260

  20764616.375    20764623.316    20764623.309   109118940.6200   85027816.6070
  81484986.8680
 22  5  2  0 27 30.0000000  0 11G02G05G06G07G09G11G13G14G20G29G30
  21799188.805    21799191.883                   114555763.7990   89264143.3040

  22435283.469    22435289.785                   117898397.0150   91868819.6930

  22517331.250    22517338.793    22517340.484   118329437.4250   92204823.9620
  88362948.8120
  21145438.156    21145442.121                   111120147.5370   86587253.7330

  23262001.594    23262009.477    23262010.508   122242861.3270   95254384.5220
  91285481.9360
  20923131.789    20923137.012    20923140.270   109952061.4670   85676861.4860
  82106994.6090
  22838747.086    22838752.734                   120018512.5300   93520921.0340

  25211284.711    25211292.230    25211297.363   132486234.4811  103236034.9941
  98934555.4320
  20524633.172    20524636.949                   107857936.7020   84045063.2730

  25438730.172                                   133681377.4350

  20764789.711    20764797.078    20764796.941   109119852.8110   85028527.4040
  81485668.0490
 22  5  2  0 28  0.0000000  0 11G02G05G06G07G09G11G13G14G20G29G30
  21808885.820    21808888.324                   114606719.4160   89303848.9700

  22424559.508    22424565.008                   117842038.7920   91824904.2090

  22542167.211    22542175.535    22542176.750   118459953.5740   92306524.7970
  88460412.0900
  21156399.820    21156404.254                   111177753.3670   86632141.3770

  23283169.813    23283176.898    23283177.625   122354096.8880   95341061.5550
  91368547.4080
  20934565.734    20934570.590    20934574.195   110012148.1460   85723682.2640
  82151864.5130
  22829217.961    22829223.684                   119968436.8570   93481901.0960

  25200284.406    25200292.082    25200296.988
  98891389.9490
  20520232.719    20520237.055                   107834813.8590   84027045.4790

  25447616.320                                   133728064.7770

  20765064.078    20765070.793    20765070.914   109121292.3390   85029649.1220
  81486743.0370
 22  5  2  0 28 30.0000000  0 11G02G05G06G07G09G11G13G14G20G29G30
  21818679.258    21818681.832                   114658184.9510   89343951.9750

  22413864.391    22413869.348                   117785832.1540   91781106.8440

  22567049.250    22567057.281    22567058.680   118590707.7490   92408411.0840
  88558053.1210
  21167450.734    21167454.836                   111235824.2080   86677391.3780

  23304347.305    23304355.188    23304355.418   122465388.4790   95427782.2650
  91451654.7770
  20946110.109    20946114.855    20946118.613   110072813.8860   85770954.2550
  82197166.8310
  22819728.594    22819734.414                   119918570.2560   93443044.0360

  25189262.547    25189269.582    25189275.207   132370507.0131  103145857.9631
  98848135.8160
  20515899.672    20515903.801                   107812043.6240   84009302.4480

  25456590.328                                   133775237.1041

  20765438.039    20765444.965    20765445.020   109123258.0710   85031180.8760
  81488210.9700
 22  5  2  0 29  0.0000000  0 11G02G05G06G07G09G11G13G14G20G29G30
  21828569.789    21828572.918                   114710162.0430   89384453.6020

  22403198.117    22403203.148                   117729781.2820   91737430.8550

  22591975.758    22591984.473    22591985.629   118721699.3040   92510482.3720
  88655871.4130
  21178589.414    21178594.055                   111294361.2320   86723004.6470

