     2.11           OBSERVATION DATA    M (MIXED)           RINEX VERSION / TYPE
Mdb2Rinex 5.6.29X   Unknown             20230402 185023 UTC PGM / RUN BY / DATE
gfzrnx-1.15-8044    HEADER EDIT         20230306 170320 UTC COMMENT
SNR is mapped to RINEX snr flag value [1-9]                 COMMENT
LX:     < 12dBHz -> 1; 12-17dBHz -> 2; 18-23dBHz -> 3       COMMENT
       24-29dBHz -> 4; 30-35dBHz -> 5; 36-41dBHz -> 6       COMMENT
       42-47dBHz -> 7; 48-53dBHz -> 8; >= 54dBHz -> 9       COMMENT
Map of observations from RINEX 3 to RINEX 2.11              COMMENT
 G: C1C->C1 C2W->P2 C5Q->C5 L1C->L1 L2W->L2 L5Q->L5         COMMENT
GRA1                                                        MARKER NAME
IGN & IECA          Unknown                                 OBSERVER / AGENCY
1871505             LEICA GR50          4.61/7.811          REC # / TYPE / VERS
102601              LEIAT504        LEIS                    ANT # / TYPE
  5077918.0120  -319155.7070  3834700.9350                  APPROX POSITION XYZ
        0.0000        0.0000        0.0000                  ANTENNA: DELTA H/E/N
     6    C1    P2    C5    L1    L2    L5                  # / TYPES OF OBSERV
     1.000                                                  INTERVAL
  2023    03    06    16    00   00.0000000     GPS         TIME OF FIRST OBS
  2023    03    06    16    59   59.0000000     GPS         TIME OF LAST OBS
    12                                                      # OF SATELLITES
   G02   879   872         853   853                        PRN / # OF OBS
   G07  2936  2929        2908  2907                        PRN / # OF OBS
   G08  3600  3600  3600  3600  3600  3600                  PRN / # OF OBS
   G10  3600  3600  3424  3600  3600  3424                  PRN / # OF OBS
   G16  3600  3600        3600  3600                        PRN / # OF OBS
   G18  3600  3600  3600  3600  3600  3600                  PRN / # OF OBS
   G21  1595  1248        1594  1248                        PRN / # OF OBS
   G23  3600  3600  3600  3600  3600  3600                  PRN / # OF OBS
   G26  3600  3600  3600  3600  3600  3600                  PRN / # OF OBS
   G27  3600  3600  3600  3600  3600  3600                  PRN / # OF OBS
   G28   228     4         168     4                        PRN / # OF OBS
   G31  1857  1829        1816  1810                        PRN / # OF OBS
                                                            END OF HEADER
 23  3  6 16  0  0.0000000  0  9G02G08G10G16G18G23G26G27G31
  25226569.020    25226576.500                   132566735.2360  103298910.4660

  24206485.160    24206503.080    24206503.640   127206008.5950   99121661.9410
  94991554.2310
  23796756.960    23796796.860                   125053157.9190   97444143.2370

  20880974.280    20880978.940                   109730401.1580   85504302.2390

  21335599.140    21335605.100    21335609.220   112119785.9140   87366273.5980
  83725764.5500
  22729713.540    22729724.740    22729729.260   119446074.4060   93074930.2080
  89196465.6980
  20274134.360    20274142.460    20274141.120   106541451.2780   83019430.8350
  79560298.7740
  21492724.820    21492733.560    21492733.720   112945324.8730   88009476.5150
  84342339.7830
  23907143.940    23907168.300                   125632590.2170   97895465.7520

 23  3  6 16  0  1.0000000  0  9G02G08G10G16G18G23G26G27G31
  25227182.780    25227190.300                   132569960.6460  103301423.7640

  24205985.780    24206003.700    24206004.280   127203384.4900   99119617.1940
  94989594.6820
  23796183.480    23796223.360                   125050144.4740   97441795.1460

  20880663.280    20880667.940                   109728766.8760   85503028.7730

  21335978.100    21335984.060    21335988.180   112121777.3700   87367825.3840
  83727251.6800
  22729335.160    22729346.360    22729350.860   119444086.0180   93073380.8290
  89194980.8770
  20274278.120    20274286.240    20274284.880   106542206.7470   83020019.5140
  79560862.9230
  21492392.560    21492401.300    21492401.460   112943578.8850   88008116.0060
  84341035.9560
  23907799.980    23907824.360                   125636037.4700   97898151.8620

 23  3  6 16  0  2.0000000  0  9G02G08G10G16G18G23G26G27G31
  25227796.600    25227804.080                   132573186.2000  103303937.1830

  24205486.440    24205504.380    24205504.960   127200760.5350   99117572.5740
  94987635.2670
  23795610.040    23795649.900                   125047131.2340   97439447.2120

  20880352.380    20880357.040                   109727133.0780   85501755.6870

  21336357.160    21336363.120    21336367.260   112123769.3700   87369377.5900
  83728739.2150
  22728956.880    22728968.060    22728972.580   119442098.1570   93071831.8520
  89193496.4370
  20274422.000    20274430.100    20274428.760   106542962.8050   83020608.6480
  79561427.5080
  21492060.380    21492069.100    21492069.280   112941833.2230   88006755.7520
  84339732.3850
  23908456.040    23908480.420                   125639484.8550   97900838.0700

 23  3  6 16  0  3.0000000  0  9G02G08G10G16G18G23G26G27G31
  25228410.440    25228417.940                   132576411.9220  103306450.7340

  24204987.160    24205005.100    24205005.700   127198136.9330   99115528.2330
  94985676.0810
  23795036.660    23795076.500                   125044118.2730   97437099.4940

  20880041.580    20880046.240                   109725499.8810   85500483.0660

  21336736.360    21336742.300    21336746.440   112125762.0330   87370930.3100
  83730227.2380
  22728578.740    22728589.900    22728594.400   119440110.9230   93070283.3650
  89192012.4690
  20274566.000    20274574.120    20274572.760   106543719.5800   83021198.3380
  79561992.6320
  21491728.280    21491737.000    21491737.180   112940087.9960   88005395.8400
  84338429.1340
  23909112.140    23909136.540                   125642932.5020   97903524.4870

 23  3  6 16  0  4.0000000  0  9G02G08G10G16G18G23G26G27G31
  25229024.300    25229031.780                   132579637.7020  103308964.3190

  24204487.900    24204505.860    24204506.460   127195513.4300   99113483.9620
  94983717.0070
  23794463.300    23794503.120                   125041105.4590   97434751.8920

  20879730.880    20879735.540                   109723867.1260   85499210.7910

  21337115.640    21337121.580    21337125.720   112127755.1830   87372483.4120
  83731715.6280
  22728200.660    22728211.820    22728216.320   119438124.1750   93068735.2600
  89190528.8750
  20274710.120    20274718.240    20274716.880   106544476.9150   83021788.4690
  79562558.1760
  21491396.220    21491404.940    21491405.140   112938343.0670   88004036.1560
  84337126.1040
  23909768.260    23909792.680                   125646380.2550   97906210.9860

 23  3  6 16  0  5.0000000  0  9G02G08G10G16G18G23G26G27G31
  25229638.160    25229645.620                   132582863.5210  103311477.9400

  24203988.720    24204006.660    24204007.240   127192890.0870   99111439.8030
  94981758.0230
  23793889.980    23793929.780                   125038092.8020   97432404.4100

  20879420.260    20879424.920                   109722234.8010   85497938.8520

  21337495.020    21337500.960    21337505.100   112129748.8150   87374036.8910
  83733204.3840
  22727822.680    22727833.840    22727838.340   119436137.8930   93067187.5140
  89189045.6330
  20274854.340    20274862.440    20274861.100   106545234.7930   83022379.0220
  79563124.1200
  21491064.220    21491072.940    21491073.140   112936598.4060   88002676.6860
  84335823.2810
  23910424.420    23910448.840                   125649828.1050   97908897.5570

 23  3  6 16  0  6.0000000  0  9G02G08G10G16G18G23G26G27G31
  25230252.040    25230259.520                   132586089.5690  103313991.7400

  24203489.560    24203507.520    24203508.080   127190267.0780   99109395.9200
  94979799.2810
  23793316.720    23793356.460                   125035080.4480   97430057.1660

  20879109.760    20879114.400                   109720603.1000   85496667.3990

  21337874.520    21337880.460    21337884.600   112131743.1200   87375590.8950
  83734693.6380
  22727444.840    22727455.980    22727460.480   119434152.2830   93065640.2930
  89187562.8710
  20274998.700    20275006.800    20275005.460   106545993.4080   83022970.1520
  79563690.6160
  21490732.300    21490741.020    21490741.240   112934854.2040   88001317.5720
  84334520.7980
  23911080.620    23911105.060                   125653276.2300   97911584.3470

 23  3  6 16  0  7.0000000  0  9G02G08G10G16G18G23G26G27G31
  25230865.960    25230873.420                   132589315.6820  103316505.5990

  24202990.440    24203008.400    24203008.960   127187644.1950   99107352.1110
  94977840.6660
  23792743.480    23792783.200                   125032068.2930   97427710.0840

  20878799.340    20878804.000                   109718971.8680   85495396.3110

  21338254.120    21338260.060    21338264.200   112133737.9520   87377145.3100
  83736183.2760
  22727067.080    22727078.240    22727082.700   119432167.1910   93064093.4740
  89186080.5070
  20275143.180    20275151.280    20275149.940   106546752.6030   83023561.7330
  79564257.5430
  21490400.440    21490409.180    21490409.400   112933110.3210   87999958.7040
  84333218.5520
  23911736.840    23911761.300                   125656724.4820   97914271.2330

 23  3  6 16  0  8.0000000  0  9G02G08G10G16G18G23G26G27G31
  25231479.860    25231487.360                   132592541.7430  103319019.4160

  24202491.340    24202509.300    24202509.840   127185021.4180   99105308.3880
  94975882.0790
  23792170.240    23792209.960                   125029056.1560   97425363.0110

  20878488.980    20878493.640                   109717340.9730   85494125.4880

  21338633.820    21338639.740    21338643.860   112135733.1730   87378700.0300
  83737673.2140
  22726689.400    22726700.540    22726705.020   119430182.4690   93062546.9440
  89184598.4170
  20275287.740    20275295.840    20275294.500   106547512.2500   83024153.6630
  79564824.8140
  21490068.620    21490077.360    21490077.600   112931366.6290   87998599.9900
  84331916.4460
  23912393.080    23912417.540                   125660172.7420   97916958.1270

 23  3  6 16  0  9.0000000  0  9G02G08G10G16G18G23G26G27G31
  25232093.760    25232101.280                   132595767.8810  103321533.3000

  24201992.260    24202010.240    24202010.760   127182398.7530   99103264.7640
  94973923.6290
  23791597.040    23791636.760                   125026044.1700   97423016.0540

  20878178.720    20878183.380                   109715710.5220   85492855.0110

  21339013.600    21339019.520    21339023.640   112137728.9040   87380255.1410
  83739163.5240
  22726311.820    22726322.940    22726327.400   119428198.2330   93061000.7940
  89183116.6860
  20275432.400    20275440.500    20275439.160   106548272.4560   83024746.0300
  79565392.4930
  21489736.860    21489745.600    21489745.840   112929623.2110   87997241.4840
  84330614.5510
  23913049.340    23913073.800                   125663621.1280   97919645.1170

 23  3  6 16  0 10.0000000  0  9G02G08G10G16G18G23G26G27G31
  25232707.680    25232715.200                   132598994.0310  103324047.1770

  24201493.200    24201511.160    24201511.720   127179776.2480   99101221.2600
  94971965.2610
  23791023.880    23791063.540                   125023032.2960   97420669.1780

  20877868.540    20877873.200                   109714080.4950   85491584.8610

  21339393.460    21339399.380    21339403.500   112139725.1010   87381810.6160
  83740654.1920
  22725934.320    22725945.440    22725949.900   119426214.4730   93059455.0150
  89181635.3150
  20275577.180    20275585.260    20275583.920   106549033.1930   83025338.8100
  79565960.5820
  21489405.160    21489413.880    21489414.140   112927880.0580   87995883.1870
  84329312.8470
  23913705.600    23913730.080                   125667069.5660   97922332.1480

 23  3  6 16  0 11.0000000  0  9G02G08G10G16G18G23G26G27G31
  25233321.560    25233329.080                   132602220.0470  103326560.9540

  24200994.140    24201012.060    24201012.640   127177153.6360   99099177.6760
  94970006.8400
  23790450.700    23790490.340                   125020020.4200   97418322.3090

  20877558.400    20877563.060                   109712450.7400   85490314.9230

  21339773.380    21339779.300    21339783.420   112141721.6170   87383366.3410
  83742145.0900
  22725556.880    22725568.000    22725572.440   119424230.9970   93057909.4620
  89180154.1750
  20275722.020    20275730.100    20275728.760   106549794.3250   83025931.8980
  79566528.9560
  21489073.460    21489082.180    21489082.460   112926137.0280   87994524.9840
  84328011.2360
  23914361.840    23914386.340                   125670517.9540   97925019.1450

 23  3  6 16  0 12.0000000  0  9G02G08G10G16G18G23G26G27G31
  25233935.440    25233942.940                   132605445.9740  103329074.6590

  24200495.080    24200512.980    24200513.580   127174531.0920   99097134.1520
  94968048.4220
  23789877.540    23789917.140                   125017008.5700   97415975.4560

  20877248.320    20877252.980                   109710821.2720   85489045.2090

  21340153.380    21340159.280    21340163.400   112143718.4840   87384922.3390
  83743636.2600
  22725179.500    22725190.620    22725195.060   119422247.8940   93056364.1970
  89178673.2820
  20275866.940    20275875.020    20275873.680   106550555.8640   83026525.3000
  79567097.6290
  21488741.800    21488750.520    21488750.820   112924394.1400   87993166.8940
  84326709.7350
  23915018.080    23915042.600                   125673966.2880   97927706.0960

 23  3  6 16  0 13.0000000  0  9G02G08G10G16G18G23G26G27G31
  25234549.280    25234556.800                   132608671.7170  103331588.2270

  24199996.000    24200013.920    24200014.500   127171908.4070   99095090.5210
  94966089.9600
  23789304.340    23789343.920                   125013996.6230   97413628.5290

  20876938.280    20876942.960                   109709192.0160   85487775.6600

  21340533.420    21340539.320    21340543.440   112145715.6070   87386478.5390
  83745127.6210
  22724802.160    22724813.280    22724817.720   119420265.0190   93054819.1080
  89177192.5880
  20276011.920    20276020.000    20276018.660   106551317.7200   83027118.9570
  79567666.5560
  21488410.140    21488418.860    21488419.180   112922651.3000   87991808.8400
  84325408.2750
  23915674.300    23915698.820                   125677414.4890   97930392.9440

 23  3  6 16  0 14.0000000  0  9G02G08G10G16G18G23G26G27G31
  25235163.100    25235170.600                   132611897.3080  103334101.6770

  24199496.900    24199514.820    24199515.400   127169285.6740   99093046.8350
  94964131.4490
  23788731.160    23788770.700                   125010984.6170   97411281.5590

  20876628.280    20876632.960                   109707563.0000   85486506.2980

  21340913.520    21340919.420    21340923.540   112147713.0200   87388034.9630
  83746619.1930
  22724424.880    22724436.000    22724440.420   119418282.4360   93053274.2460
  89175712.0820
  20276156.940    20276165.040    20276163.700   106552079.9190   83027712.8760
  79568235.7220
  21488078.500    21488087.220    21488087.540   112920908.5380   87990450.8500
  84324106.8620
  23916330.500    23916355.060                   125680862.5840   97933079.7070

 23  3  6 16  0 15.0000000  0  9G02G08G10G16G18G23G26G27G31
  25235776.920    25235784.400                   132615123.0120  103336615.2100

  24198997.840    24199015.760    24199016.360   127166663.1670   99091003.3310
  94962173.1050
  23788158.000    23788197.520                   125007972.8570   97408934.7820

  20876318.380    20876323.060                   109705934.5120   85485237.3480

  21341293.720    21341299.620    21341303.740   112149711.0080   87389591.8350
  83748111.1990
  22724047.720    22724058.820    22724063.240   119416300.4180   93051729.8210
  89174232.0190
  20276302.120    20276310.200    20276308.860   106552842.7680   83028307.3020
  79568805.3870
  21487746.940    21487755.660    21487755.980   112919166.1450   87989093.1450
  84322805.7380
  23916986.720    23917011.300                   125684310.8700   97935766.6210

 23  3  6 16  0 16.0000000  0  9G02G08G10G16G18G23G26G27G31
  25236390.780    25236398.220                   132618348.8340  103339128.8420

  24198498.840    24198516.700    24198517.340   127164040.8440   99088959.9730
  94960214.8830
  23787584.900    23787624.360                   125004961.3040   97406588.1640

  20876008.580    20876013.260                   109704306.5120   85483968.7810

  21341674.020    21341679.940    21341684.040   112151709.5450   87391149.1360
  83749603.6110
  22723670.660    22723681.740    22723686.160   119414318.9300   93050185.8040
  89172752.3470
  20276447.400    20276455.480    20276454.160   106553606.2250   83028902.2030
  79569375.5020
  21487415.440    21487424.140    21487424.500   112917424.0980   87987735.7120
  84321504.8590
  23917643.000    23917667.560                   125687759.3080   97938453.6550

 23  3  6 16  0 17.0000000  0  9G02G08G10G16G18G23G26G27G31
  25237004.640    25237012.080                   132621574.6630  103341642.4750

  24197999.840    24198017.720    24198018.360   127161418.6100   99086916.6840
  94958256.7390
  23787011.820    23787051.240                   125001949.8980   97404241.6590

  20875698.880    20875703.540                   109702678.9510   85482700.5540

  21342054.420    21342060.340    21342064.440   112153708.5710   87392706.8170
  83751096.3830
  22723293.680    22723304.760    22723309.180   119412337.9060   93048642.1590
  89171273.0350
  20276592.780    20276600.880    20276599.540   106554370.2290   83029497.5290
  79569946.0150
  21487083.980    21487092.680    21487093.060   112915682.3140   87986378.4840
  84320204.1820
  23918299.280    23918323.840                   125691207.8380   97941140.7560

 23  3  6 16  0 18.0000000  0  9G02G08G10G16G18G23G26G27G31
  25237618.440    25237625.900                   132624800.2410  103344155.9060

  24197500.800    24197518.660    24197519.320   127158796.2290   99084873.2830
  94956298.4570
  23786438.700    23786478.120                   124998938.2870   97401894.9920

  20875389.180    20875393.840                   109701051.4880   85481432.4010

  21342434.860    21342440.760    21342444.860   112155707.7500   87394264.6180
  83752589.2800
  22722916.740    22722927.820    22722932.200   119410357.0490   93047098.6440
  89169793.8200
  20276738.220    20276746.300    20276744.960   106555134.4390   83030093.0160
  79570516.6950
  21486752.520    21486761.220    21486761.600   112913940.4930   87985021.2250
  84318903.4750
  23918955.500    23918980.100                   125694656.1400   97943827.6830

 23  3  6 16  0 19.0000000  0  9G02G08G10G16G18G23G26G27G31
  25238232.220    25238239.720                   132628025.7950  103346669.3230

  24197001.780    24197019.640    24197020.300   127156173.9030   99082829.9200
  94954340.2490
  23785865.600    23785904.980                   124995926.7520   97399548.3850

  20875079.560    20875084.220                   109699424.4130   85480164.5510

  21342815.380    21342821.280    21342825.360   112157707.3430   87395822.7410
  83754082.4860
  22722539.860    22722550.940    22722555.320   119408376.6130   93045555.4530
  89168314.9270
  20276883.740    20276891.820    20276890.480   106555899.1570   83030688.9000
  79571087.7470
  21486421.100    21486429.800    21486430.180   112912198.8820   87983664.1300
  84317602.9260
  23919611.720    23919636.360                   125698104.4780   97946514.6340

 23  3  6 16  0 20.0000000  0  9G02G08G10G16G18G23G26G27G31
  25238845.980    25238853.440                   132631251.0650  103349182.5140

  24196502.740    24196520.600    24196521.260   127153551.4170   99080786.4430
  94952381.9100
  23785292.460    23785331.780                   124992915.0520   97397201.6500

  20874769.960    20874774.620                   109697797.4620   85478896.7990

  21343195.920    21343201.820    21343205.900   112159707.1420   87397381.0260
  83755575.8310
  22722163.020    22722174.100    22722178.480   119406396.3370   93044012.3910
  89166836.1650
  20277029.300    20277037.380    20277036.040   106556664.1090   83031284.9640
  79571658.9740
  21486089.660    21486098.360    21486098.780   112910457.2500   87982307.0180
  84316302.3550
  23920267.920    23920292.560                   125701552.6040   97949201.4220

 23  3  6 16  0 21.0000000  0  9G02G08G10G16G18G23G26G27G31
  25239459.720    25239467.180                   132634476.3880  103351695.7480

  24196003.720    24196021.600    24196022.240   127150929.0780   99078743.0780
  94950423.6820
  23784719.340    23784758.640                   124989903.4960   97394855.0270

  20874460.440    20874465.120                   109696170.9550   85477629.3930

  21343576.560    21343582.460    21343586.540   112161707.4370   87398939.6910
  83757069.5520
  22721786.280    22721797.360    22721801.740   119404416.5470   93042469.7080
  89165357.7660
  20277174.980    20277183.060    20277181.720   106557429.6260   83031881.4710
  79572230.6260
  21485758.300    21485767.000    21485767.420   112908715.9180   87980950.1360
  84315002.0150
  23920924.140    23920948.800                   125705000.8140   97951888.2750

 23  3  6 16  0 22.0000000  0  9G02G08G10G16G18G23G26G27G31
  25240073.520    25240080.960                   132637701.9340  103354209.1670

  24195504.740    24195522.640    24195523.260   127148307.0470   99076699.9370
  94948465.6800
  23784146.300    23784185.580                   124986892.2560   97392508.6480

  20874151.040    20874155.720                   109694545.0580   85476362.4600

  21343957.340    21343963.240    21343967.320   112163708.3780   87400498.8660
  83758563.7650
  22721409.680    22721420.740    22721425.100   119402437.4210   93040927.5410
  89163879.8480
  20277320.780    20277328.880    20277327.540   106558195.8630   83032478.5360
  79572802.8120
  21485427.000    21485435.720    21485436.140   112906975.0350   87979593.6060
  84313702.0150
  23921580.420    23921605.080                   125708449.3180   97954575.3560

 23  3  6 16  0 23.0000000  0  9G02G08G10G16G18G23G26G27G31
  25240687.340    25240694.780                   132640927.6740  103356722.7330

  24195005.840    24195023.740    24195024.360   127145685.2780   99074657.0040
  94946507.8850
  23783573.320    23783612.560                   124983881.3200   97390162.5080

  20873841.760    20873846.440                   109692919.7700   85475096.0010

  21344338.220    21344344.140    21344348.200   112165709.9820   87402058.5590
  83760058.4690
  22721033.180    22721044.240    22721048.600   119400458.9290   93039385.8670
  89162402.4160
  20277466.740    20277474.820    20277473.480   106558962.8220   83033076.1630
  79573375.5370
  21485095.800    21485104.520    21485104.940   112905234.5960   87978237.4200
  84312402.3290
  23922236.740    23922261.420                   125711898.0660   97957262.6310

 23  3  6 16  0 24.0000000  0  9G02G08G10G16G18G23G26G27G31
  25241301.160    25241308.620                   132644153.3520  103359236.2400

  24194506.920    24194524.820    24194525.440   127143063.5990   99072614.1450
  94944550.1330
  23783000.340    23783039.520                   124980870.4210   97387816.3960

  20873532.520    20873537.200                   109691294.7820   85473829.7790

  21344719.180    21344725.100    21344729.160   112167711.9560   87403618.5370
  83761553.4360
  22720656.760    22720667.820    22720672.160   119398480.7950   93037844.4760
  89160925.2480
  20277612.760    20277620.840    20277619.500   106559730.2120   83033674.1290
  79573948.5860
  21484764.640    21484773.340    21484773.780   112903494.3130   87976881.3590
  84311102.7760
  23922893.040    23922917.740                   125715346.8200   97959949.9080

 23  3  6 16  0 25.0000000  0  9G02G08G10G16G18G23G26G27G31
  25241915.020    25241922.460                   132647379.1890  103361749.8770

  24194008.080    24194025.900    24194026.600   127140442.1080   99070571.4340
  94942592.5720
  23782427.400    23782466.560                   124977859.7900   97385470.4950

  20873223.420    20873228.080                   109689670.3840   85472564.0150

  21345100.260    21345106.180    21345110.240   112169714.5420   87405178.9920
  83763048.8840
  22720280.460    22720291.500    22720295.860   119396503.3010   93036303.5840
  89159448.5580
  20277758.920    20277767.000    20277765.660   106560498.2800   83034272.6240
  79574522.1440
  21484433.540    21484442.260    21484442.700   112901754.4540   87975525.6250
  84309803.5350
  23923549.400    23923574.120                   125718795.7860   97962637.3510

 23  3  6 16  0 26.0000000  0  9G02G08G10G16G18G23G26G27G31
  25242528.880    25242536.320                   132650605.0160  103364263.5090

  24193509.260    24193527.100    24193527.740   127137820.7470   99068528.8350
  94940635.0580
  23781854.480    23781893.620                   124974849.2330   97383124.6490

  20872914.360    20872919.040                   109688046.3390   85471298.5290

  21345481.440    21345487.340    21345491.400   112171717.5490   87406739.7740
  83764544.6330
  22719904.240    22719915.260    22719919.620   119394526.1910   93034762.9830
  89157972.1580
  20277905.180    20277913.260    20277911.920   106561266.8400   83034871.4990
  79575096.0660
  21484102.480    21484111.200    21484111.660   112900014.7910   87974170.0490
  84308504.4410
  23924205.780    23924230.500                   125722244.7950   97965324.8240

 23  3  6 16  0 27.0000000  0  9G02G08G10G16G18G23G26G27G31
  25243142.760    25243150.200                   132653830.9250  103366777.2100

  24193010.440    24193028.280    24193028.920   127135199.5560   99066486.3630
  94938677.6770
  23781281.600    23781320.700                   124971838.8810   97380778.9630

  20872605.420    20872610.080                   109686422.7940   85470033.4290

  21345862.700    21345868.600    21345872.660   112173721.1000   87408300.9780
  83766040.7950
  22719528.100    22719539.120    22719543.480   119392549.6260   93033222.8100
  89156496.1630
  20278051.540    20278059.620    20278058.280   106562035.9850   83035470.8310
  79575670.4300
  21483771.500    21483780.220    21483780.680   112898275.4660   87972814.7350
  84307205.6010
  23924862.160    23924886.900                   125725693.9190   97968012.3920

 23  3  6 16  0 28.0000000  0  9G02G08G10G16G18G23G26G27G31
  25243756.620    25243764.100                   132657056.8730  103369290.9340

  24192511.640    24192529.440    24192530.140   127132578.4890   99064443.9730
  94936720.4050
  23780708.760    23780747.800                   124968828.6700   97378433.3900

  20872296.540    20872301.220                   109684799.6840   85468768.6720

  21346244.040    21346249.960    21346254.020   112175725.1420   87409862.5670
  83767537.3160
  22719152.060    22719163.060    22719167.440   119390573.5380   93031683.0160
  89155020.5350
  20278198.020    20278206.100    20278204.760   106562805.6960   83036070.6030
  79576245.2090
  21483440.580    21483449.300    21483449.760   112896536.4330   87971459.6460
  84305906.9720
  23925518.600    23925543.340                   125729143.1560   97970700.0460

 23  3  6 16  0 29.0000000  0  9G02G08G10G16G18G23G26G27G31
  25244370.500    25244377.980                   132660282.7900  103371804.6390

  24192012.860    24192030.660    24192031.360   127129957.4430   99062401.6100
  94934763.1420
  23780135.900    23780174.920                   124965818.4860   97376087.8340

  20871987.740    20871992.420                   109683176.9080   85467504.1710

  21346625.480    21346631.400    21346635.440   112177729.5620   87411424.4550
  83769034.1200
  22718776.100    22718787.100    22718791.460   119388597.8230   93030143.5100
  89153545.1560
  20278344.560    20278352.640    20278351.320   106563575.8530   83036670.7240
  79576820.3230
  21483109.660    21483118.380    21483118.880   112894797.5600   87970104.6870
  84304608.4710
  23926175.020    23926199.760                   125732592.3830   97973387.6890

 23  3  6 16  0 30.0000000  0  9G02G08G10G16G18G23G26G27G31
  25244984.320    25244991.780                   132663508.4800  103374318.1480

  24191514.060    24191531.840    24191532.540   127127336.2440   99060359.1220
  94932805.7840
  23779563.040    23779602.020                   124962808.2210   97373742.2140

  20871678.960    20871683.640                   109681554.3110   85466239.8140

  21347006.960    21347012.880    21347016.920   112179734.2260   87412986.5280
  83770531.1060
  22718400.160    22718411.160    22718415.540   119386622.3290   93028604.1720
  89152069.9730
  20278491.180    20278499.260    20278497.920   106564346.3040   83037271.0750
  79577395.6620
  21482778.760    21482787.500    21482787.980   112893058.7340   87968749.7620
  84303310.0020
  23926831.400    23926856.160                   125736041.4540   97976075.2140

 23  3  6 16  0 31.0000000  0  9G02G08G10G16G18G23G26G27G31
  25245598.080    25245605.560                   132666733.8760  103376831.4440

  24191015.240    24191033.060    24191033.700   127124714.9490   99058316.5700
  94930848.3170
  23778990.160    23779029.100                   124959797.7870   97371396.4620

  20871370.220    20871374.900                   109679931.8580   85464975.5670

  21347388.460    21347394.380    21347398.420   112181739.0510   87414548.7290
  83772028.2210
  22718024.260    22718035.280    22718039.640   119384647.0160   93027064.9760
  89150594.9130
  20278637.840    20278645.920    20278644.580   106565116.9990   83037871.6150
  79577971.1770
  21482447.860    21482456.600    21482457.100   112891319.8620   87967394.8020
  84302011.4980
  23927487.740    23927512.500                   125739490.3080   97978762.5730

 23  3  6 16  0 32.0000000  0  9G02G08G10G16G18G23G26G27G31
  25246211.880    25246219.420                   132669959.4380  103379344.8620

  24190516.460    24190534.240    24190534.900   127122093.8390   99056274.1490
  94928891.0310
  23778417.280    23778456.200                   124956787.5710   97369050.8870

  20871061.560    20871066.260                   109678309.9230   85463711.7210

  21347770.080    21347776.000    21347780.040   112183744.4830   87416111.4050
  83773525.7760
  22717648.480    22717659.480    22717663.860   119382672.2770   93025526.2320
  89149120.2860
  20278784.620    20278792.700    20278791.380   106565888.3360   83038472.6570
  79578547.1810
  21482117.040    21482125.760    21482126.280   112889581.3700   87966040.1370
  84300713.2820
  23928144.120    23928168.880                   125742939.3380   97981450.0650

 23  3  6 16  0 33.0000000  0  9G02G08G10G16G18G23G26G27G31
  25246825.700    25246833.220                   132673185.1420  103381858.3960

  24190017.740    24190035.520    24190036.140   127119473.0400   99054231.9860
  94926933.9370
  23777844.480    23777883.380                   124953777.6230   97366705.5180

  20870753.040    20870757.720                   109676688.5450   85462448.3140

  21348151.820    21348157.720    21348161.760   112185750.4880   87417674.5260
  83775023.7700
  22717272.800    22717283.820    22717288.180   119380698.1360   93023987.9510
  89147646.0900
  20278931.520    20278939.600    20278938.280   106566660.3350   83039074.2100
  79579123.6700
  21481786.280    21481795.020    21481795.520   112887843.2770   87964685.7850
  84299415.3560
  23928800.540    23928825.320                   125746388.5830   97984137.7250

 23  3  6 16  0 34.0000000  0  9G02G08G10G16G18G23G26G27G31
  25247439.500    25247447.020                   132676410.7220  103384371.8310

  24189519.000    24189536.800    24189537.380   127116852.1940   99052189.7870
  94924976.8130
  23777271.660    23777310.540                   124950767.6360   97364360.1140

  20870444.540    20870449.240                   109675067.4290   85461185.1090

  21348533.600    21348539.520    21348543.560   112187756.8160   87419237.8960
  83776522.0040
  22716897.200    22716908.200    22716912.560   119378724.2950   93022449.9050
  89146172.1330
  20279078.500    20279086.580    20279085.260   106567432.7150   83039676.0630
  79579700.4410
  21481455.540    21481464.300    21481464.800   112886105.2920   87963331.5140
  84298117.5180
  23929456.940    23929481.740                   125749837.7490   97986825.3210

 23  3  6 16  0 35.0000000  0  9G02G08G10G16G18G23G26G27G31
  25248052.780    25248060.280                   132679633.5200  103386883.0990

  24189019.760    24189037.520    24189038.120   127114228.6570   99050145.4970
  94923017.7080
  23776698.360    23776737.180                   124947754.9980   97362012.6470

  20870135.600    20870140.280                   109673443.9460   85459920.0600

  21348914.960    21348920.880    21348924.900   112189760.8260   87420799.4630
  83778018.4960
  22716521.120    22716532.140    22716536.480   119376748.1310   93020910.0430
  89144696.4320
  20279225.060    20279233.140    20279231.800   106568202.8300   83040276.1520
  79580275.5270
  21481124.320    21481133.080    21481133.600   112884364.7720   87961975.2660
  84296817.7770
  23930112.820    23930137.620                   125753284.1880   97989510.7950

 23  3  6 16  0 36.0000000  0  9G02G08G10G16G18G23G26G27G31
  25248666.280    25248673.800                   132682857.4890  103389395.2850

  24188520.780    24188538.500    24188539.100   127111606.4280   99048102.2080
  94921059.5380
  23776125.280    23776164.080                   124944743.6110   97359666.1560

  20869826.960    20869831.640                   109671822.0190   85458656.2220

  21349296.600    21349302.540    21349306.560   112191766.4450   87422362.2820
  83779516.2020
  22716145.380    22716156.380    22716160.720   119374773.5720   93019371.4360
  89143221.9420
  20279371.920    20279380.000    20279378.680   106568974.6210   83040877.5480
  79580851.8650
  21480793.380    21480802.120    21480802.660   112882625.6470   87960620.1080
  84295519.0930
  23930768.920    23930793.740                   125756731.8530   97992197.2260

 23  3  6 16  0 37.0000000  0 10G02G08G10G16G18G23G26G27G28G31
  25249280.040    25249287.580                   132686082.9380  103391908.6220

  24188022.080    24188039.780    24188040.380   127108985.7310   99046060.1130
  94919102.5440
  23775552.500    23775591.280                   124941733.8360   97357320.9230

  20869518.680    20869523.360                   109670201.9730   85457393.8490

  21349678.640    21349684.560    21349688.580   112193773.9710   87423926.5880
  83781015.3340
  22715769.980    22715780.980    22715785.320   119372800.9050   93017834.3030
  89141748.8500
  20279519.180    20279527.240    20279525.920   106569748.3910   83041480.4820
  79581429.6740
  21480462.760    21480471.500    21480472.040   112880888.2430   87959266.2910
  84294221.6850
  24570103.800                                   129116266.2281

  23931425.340    23931450.160                   125760181.0410   97994884.8390

 23  3  6 16  0 38.0000000  0  9G02G08G10G16G18G23G26G27G31
  25249893.940    25249901.480                   132689308.9810  103394422.4110

  24187523.520    24187541.180    24187541.800   127106365.7730   99044018.5990
  94917146.1030
  23774979.860    23775018.600                   124938724.7850   97354976.2500

  20869210.580    20869215.260                   109668582.9280   85456132.2590

  21350060.860    21350066.780    21350070.800   112195782.5710   87425491.7290
  83782515.2590
  22715394.800    22715405.800    22715410.140   119370829.3110   93016298.0040
  89140276.5770
  20279666.640    20279674.700    20279673.380   106570523.2930   83042084.2990
  79582008.3350
  21480132.300    21480141.060    21480141.580   112879151.6980   87957913.1430
  84292924.9200
  23932081.860    23932106.700                   125763630.8980   97997572.9740

 23  3  6 16  0 39.0000000  0  9G02G08G10G16G18G23G26G27G31
  25250507.920    25250515.480                   132692535.4670  103396936.5630

  24187025.040    24187042.680    24187043.300   127103746.3110   99041977.4460
  94915190.0180
  23774407.320    23774446.020                   124935716.2350   97352631.9750

  20868902.640    20868907.320                   109666964.6930   85454871.2990

  21350443.260    21350449.180    21350453.200   112197792.0370   87427057.5460
  83784015.8220
  22715019.760    22715030.780    22715035.100   119368858.5750   93014762.3780
  89138804.9320
  20279814.280    20279822.340    20279821.020   106571299.1070   83042688.8280
  79582587.6760
  21479801.960    21479810.720    21479811.260   112877415.8130   87956560.5070
  84291628.6380
  23932738.480    23932763.340                   125767081.2200   98000261.4750

 23  3  6 16  0 40.0000000  0  9G02G08G10G16G18G23G26G27G31
  25251121.920    25251129.460                   132695762.0720  103399450.7990

  24186526.600    24186544.240    24186544.860   127101127.1040   99039936.5110
  94913234.1260
  23773834.820    23773873.500                   124932707.9190   97350287.8730

  20868594.800    20868599.480                   109665346.9930   85453610.7580

  21350825.760    21350831.680    21350835.680   112199802.0510   87428623.7910
  83785516.8220
  22714644.860    22714655.860    22714660.160   119366888.4070   93013227.1950
  89137333.7100
  20279962.040    20279970.100    20279968.760   106572075.5810   83043293.8720
  79583167.5030
  21479471.700    21479480.460    21479481.000   112875680.2820   87955208.1520
  84290332.6350
  23933395.140    23933420.000                   125770531.7160   98002950.1100

 23  3  6 16  0 41.0000000  0  9G02G08G10G16G18G23G26G27G31
  25251735.900    25251743.460                   132698988.6400  103401965.0070

  24186028.180    24186045.840    24186046.420   127098507.9420   99037895.6180
  94911278.2860
  23773262.340    23773301.000                   124929699.6950   97347943.8440

  20868287.020    20868291.720                   109663729.6480   85452350.4910

  21351208.320    21351214.260    21351218.260   112201812.4930   87430190.3660
  83787018.1190
  22714270.020    22714281.000    22714285.300   119364918.6360   93011692.3120
  89135862.7950
  20280109.880    20280117.940    20280116.620   106572852.5170   83043899.2730
  79583747.6820
  21479141.460    21479150.240    21479150.780   112873944.9620   87953855.9560
  84289036.7870
  23934051.820    23934076.680                   125773982.2460   98005638.7690

 23  3  6 16  0 42.0000000  0  9G02G08G10G16G18G23G26G27G31
  25252349.900    25252357.460                   132702215.2560  103404479.2450

  24185529.800    24185547.440    24185548.020   127095888.9270   99035854.8450
  94909322.5300
  23772689.880    23772728.520                   124926691.6130   97345599.9330

  20867979.340    20867984.020                   109662112.7550   85451090.5740

  21351590.980    21351596.920    21351600.920   112203823.4380   87431757.3380
  83788519.7890
  22713895.260    22713906.260    22713910.540   119362949.3690   93010157.8270
  89134392.2420
  20280257.840    20280265.900    20280264.560   106573630.0120   83044505.1130
  79584328.2780
  21478811.300    21478820.080    21478820.620   112872209.9380   87952503.9960
  84287741.1500
  23934708.480    23934733.380                   125777432.8750   98008327.5080

 23  3  6 16  0 43.0000000  0  9G02G08G10G16G18G23G26G27G31
  25252963.880    25252971.460                   132705441.8450  103406993.4660

  24185031.400    24185049.060    24185049.640   127093269.9670   99033814.1180
  94907366.8270
  23772117.440    23772156.040                   124923683.5830   97343256.0560

  20867671.720    20867676.420                   109660496.2140   85449830.9340

  21351973.740    21351979.680    21351983.680   112205834.7840   87433324.6180
  83790021.7720
  22713520.580    22713531.580    22713535.860   119360980.5100   93008623.6610
  89132921.9920
  20280405.880    20280413.940    20280412.620   106574407.9860   83045111.3290
  79584909.2380
  21478481.160    21478489.940    21478490.480   112870475.1090   87951152.1850
  84286445.6710
  23935365.180    23935390.040                   125780883.5020   98011016.2440

 23  3  6 16  0 44.0000000  0  9G02G08G10G16G18G23G26G27G31
  25253577.860    25253585.460                   132708668.3550  103409507.6280

  24184533.000    24184550.660    24184551.240   127090651.0020   99031773.3780
  94905411.1140
  23771544.980    23771583.580                   124920675.6270   97340912.2420

  20867364.180    20867368.860                   109658880.0070   85448571.5540

  21352356.560    21352362.500    21352366.480   112207846.5040   87434892.1920
  83791524.0260
  22713145.980    22713156.960    22713161.240   119359012.0000   93007089.7630
  89131452.0230
  20280554.020    20280562.080    20280560.740   106575186.4010   83045717.8820
  79585490.5100
  21478151.060    21478159.840    21478160.400   112868740.4460   87949800.5010
  84285150.3010
  23936021.860    23936046.740                   125784334.1270   98013704.9810

 23  3  6 16  0 45.0000000  0  9G02G08G10G16G18G23G26G27G31
  25254191.800    25254199.400                   132711894.6240  103412021.6000

  24184034.580    24184052.240    24184052.820   127088031.8980   99029732.5360
  94903455.2870
  23770972.540    23771011.100                   124917667.4740   97338568.2710

  20867056.640    20867061.320                   109657263.9440   85447312.2840

  21352739.420    21352745.360    21352749.340   112209858.4230   87436459.9190
  83793026.4310
  22712771.420    22712782.400    22712786.660   119357043.6950   93005556.0250
  89129982.1860
  20280702.180    20280710.260    20280708.920   106575965.0770   83046324.6440
  79586071.9910
  21477820.960    21477829.760    21477830.300   112867005.7770   87948448.8150
  84283854.9370
  23936678.500    23936703.400                   125787784.5810   98016393.5830

 23  3  6 16  0 46.0000000  0  9G02G08G10G16G18G23G26G27G31
  25254805.760    25254813.380                   132715120.9240  103414535.5980

  24183536.200    24183553.820    24183554.440   127085412.9060   99027691.7660
  94901499.5860
  23770400.080    23770438.620                   124914659.5050   97336224.4440

  20866749.200    20866753.880                   109655648.3230   85446053.3610

  21353122.360    21353128.300    21353132.300   112211870.8260   87438028.0250
  83794529.2040
  22712396.940    22712407.920    22712412.180   119355075.8730   93004022.6680
  89128512.7230
  20280850.460    20280858.540    20280857.200   106576744.2960   83046931.8260
  79586653.8770
  21477490.920    21477499.720    21477500.260   112865271.4000   87947097.3540
  84282559.7940
  23937335.160    23937360.060                   125791235.0760   98019082.2150

 23  3  6 16  0 47.0000000  0  9G02G08G10G16G18G23G26G27G31
  25255419.680    25255427.280                   132718347.0450  103417049.4590

  24183037.780    24183055.400    24183056.020   127082793.8310   99025650.9300
  94899543.8000
  23769827.660    23769866.160                   124911651.4540   97333880.5480

  20866441.800    20866446.480                   109654032.9150   85444794.6050

  21353505.360    21353511.300    21353515.280   112213883.4830   87439596.3300
  83796032.1600
  22712022.520    22712033.460    22712037.760   119353108.3170   93002489.5130
  89127043.4540
  20280998.800    20281006.880    20281005.560   106577523.8390   83047539.2600
  79587236.0010
  21477160.880    21477169.680    21477170.220   112863537.0640   87945745.9290
  84281264.6730
  23937991.800    23938016.700                   125794685.4720   98021770.7700

 23  3  6 16  0 48.0000000  0  9G02G08G10G16G18G23G26G27G31
  25256033.560    25256041.160                   132721573.0850  103419563.2500

  24182539.400    24182557.000    24182557.620   127080174.8130   99023610.1390
  94897588.0310
  23769255.200    23769293.680                   124908643.4190   97331536.6720

  20866134.440    20866139.140                   109652417.8270   85443536.0950

  21353888.420    21353894.380    21353898.360   112215896.5140   87441164.9270
  83797535.3970
  22711648.140    22711659.100    22711663.380   119351141.1000   93000956.6270
  89125574.4400
  20281147.240    20281155.300    20281153.980   106578303.8150   83048147.0310
  79587818.4510
  21476830.880    21476839.660    21476840.220   112861802.8870   87944394.6260
  84279969.6800
  23938648.440    23938673.360                   125798135.8310   98024459.2960

 23  3  6 16  0 49.0000000  0 10G02G08G10G16G18G23G26G27G28G31
  25256647.480    25256655.060                   132724799.1750  103422077.0720

  24182041.020    24182058.580    24182059.260   127077555.8980   99021569.4500
  94895632.3820
  23768682.780    23768721.220                   124905635.5340   97329192.9100

  20865827.200    20865831.880                   109650803.1860   85442277.9350

  21354271.580    21354277.540    21354281.520   112217910.0390   87442733.9060
  83799039.0090
  22711273.880    22711284.820    22711289.120   119349174.3760   92999424.1210
  89124105.8080
  20281295.760    20281303.840    20281302.520   106579084.3530   83048755.2430
  79588401.3220
  21476500.920    21476509.720    21476510.280   112860069.0140   87943043.5600
  84278674.9070
  24578339.160                                   129159545.6540

  23939305.100    23939330.000                   125801586.2980   98027147.9100

 23  3  6 16  0 50.0000000  0  9G02G08G10G16G18G23G26G27G31
  25257261.360    25257268.940                   132728025.1290  103424590.7950

  24181542.640    24181560.220    24181560.900   127074937.0060   99019528.7700
  94893676.7240
  23768110.360    23768148.780                   124902627.6750   97326849.1690

  20865520.000    20865524.680                   109649188.8280   85441019.9960

  21354654.820    21354660.780    21354664.740   112219923.9020   87444303.1480
  83800542.8610
  22710899.680    22710910.580    22710914.900   119347207.9970   92997891.8840
  89122637.4080
  20281444.380    20281452.440    20281451.120   106579865.2930   83049363.7660
  79588984.4840
  21476170.980    21476179.800    21476180.340   112858335.2570   87941692.5850
  84277380.2220
  23939961.740    23939986.640                   125805036.7020   98029836.4710

 23  3  6 16  0 51.0000000  0  9G02G08G10G16G18G23G26G27G31
  25257875.260    25257882.840                   132731251.1840  103427104.6030

  24181044.300    24181061.900    24181062.560   127072318.2250   99017488.1890
  94891721.1530
  23767537.980    23767576.380                   124899619.9530   97324505.5320

  20865212.880    20865217.560                   109647574.9520   85439762.4280

  21355038.140    21355044.100    21355048.060   112221938.2780   87445872.7870
  83802047.0970
  22710525.580    22710536.480    22710540.800   119345242.1360   92996360.0520
  89121169.3950
  20281593.100    20281601.160    20281599.840   106580646.8170   83049972.7430
  79589568.0850
  21475841.120    21475849.940    21475850.480   112856601.8180   87940341.8550
  84276085.7710
  23940618.400    23940643.320                   125808487.2340   98032525.1340

 23  3  6 16  0 52.0000000  0  9G02G08G10G16G18G23G26G27G31
  25258489.180    25258496.780                   132734477.3820  103429618.5170

  24180546.000    24180563.600    24180564.260   127069699.7010   99015447.7920
  94889765.7680
  23766965.640    23767004.020                   124896612.4600   97322162.0780

  20864905.860    20864910.540                   109645961.5950   85438505.2690

  21355421.580    21355427.540    21355431.500   112223953.2370   87447442.8810
  83803551.7720
  22710151.600    22710162.480    22710166.780   119343276.8420   92994828.6640
  89119701.8210
  20281741.940    20281750.000    20281748.680   106581428.9740   83050582.2140
  79590152.1670
  21475511.320    21475520.140    21475520.680   112854868.7440   87938991.4140
  84274791.6020
  23941275.100    23941300.040                   125811937.9530   98035213.9400

 23  3  6 16  0 53.0000000  0  9G02G08G10G16G18G23G26G27G31
  25259103.040    25259110.680                   132737703.2830  103432132.2040

  24180047.640    24180065.220    24180065.920   127067080.9360   99013407.1970
  94887810.2510
  23766393.260    23766431.600                   124893604.8290   97319818.5150

  20864598.880    20864603.560                   109644348.3810   85437248.2190

  21355805.060    21355811.000    21355814.980   112225968.3700   87449013.1150
  83805056.5810
  22709777.640    22709788.500    22709792.820   119341311.7240   92993297.4060
  89118234.3660
  20281890.820    20281898.900    20281897.580   106582211.3830   83051191.8850
  79590736.4320
  21475181.520    21475190.340    21475190.880   112853135.6440   87937640.9500
  84273497.4140
  23941931.760    23941956.680                   125815388.4520   98037902.5770

 23  3  6 16  0 54.0000000  0  9G02G08G10G16G18G23G26G27G31
  25259716.900    25259724.540                   132740929.1760  103434645.8910

  24179549.320    24179566.940    24179567.620   127064462.2990   99011366.7130
  94885854.7790
  23765820.900    23765859.240                   124890597.3040   97317475.0320

  20864291.960    20864296.640                   109642735.5340   85435991.4580

  21356188.600    21356194.540    21356198.520   112227983.9180   87450583.6690
  83806561.6980
  22709403.760    22709414.600    22709418.920   119339347.0260   92991766.4830
  89116767.2300
  20282039.800    20282047.880    20282046.560   106582994.2750   83051801.9270
  79591321.0600
  21474851.760    21474860.600    21474861.120   112851402.7800   87936290.6690
  84272203.3880
  23942588.440    23942613.360                   125818838.9920   98040591.2440

 23  3  6 16  0 55.0000000  0  9G02G08G10G16G18G23G26G27G31
  25260330.780    25260338.440                   132744155.1550  103437159.6430

  24179051.060    24179068.660    24179069.340   127061843.8850   99009326.4050
  94883899.4610
  23765248.600    23765286.920                   124887589.9950   97315131.7190

  20863985.140    20863989.820                   109641123.2000   85434735.0950

  21356572.260    21356578.180    21356582.180   112230000.0280   87452154.6600
  83808067.2310
  22709029.980    22709040.820    22709045.140   119337382.8700   92990235.9820
  89115300.5060
  20282188.900    20282196.980    20282195.660   106583777.7910   83052412.4590
  79591906.1440
  21474522.060    21474530.900    21474531.440   112849670.2480   87934940.6470
  84270909.6220
  23943245.120    23943270.060                   125822289.6850   98043280.0300

 23  3  6 16  0 56.0000000  0  9G02G08G10G16G18G23G26G27G31
  25260944.680    25260952.340                   132747381.1850  103439673.4300

  24178552.800    24178570.380    24178571.080   127059225.6010   99007286.1940
  94881944.2700
  23764676.340    23764714.600                   124884582.8030   97312788.4920

  20863678.400    20863683.080                   109639511.2890   85433479.0650

  21356956.000    21356961.920    21356965.920   112232016.6090   87453726.0220
  83809573.1210
  22708656.300    22708667.120    22708671.440   119335419.1950   92988705.8530
  89113834.1370
  20282338.100    20282346.180    20282344.860   106584561.8470   83053023.4100
  79592491.6430
  21474192.420    21474201.260    21474201.780   112847937.9910   87933590.8410
  84269616.0590
  23943901.820    23943926.780                   125825740.4380   98045968.8670

 23  3  6 16  0 57.0000000  0  9G02G08G10G16G18G23G26G27G31
  25261558.580    25261566.240                   132750607.3670  103442187.3260

  24178054.580    24178072.180    24178072.880   127056607.5790   99005246.1890
  94879989.2670
  23764104.120    23764142.320                   124881575.8900   97310445.4860

  20863371.780    20863376.440                   109637899.9430   85432223.4700

  21357339.860    21357345.780    21357349.780   112234033.7910   87455297.8500
  83811079.4560
  22708282.720    22708293.540    22708297.880   119333456.1290   92987176.1980
  89112368.2150
  20282487.440    20282495.500    20282494.200   106585346.5660   83053634.8770
  79593077.6320
  21473862.840    21473871.700    21473872.220   112846206.1440   87932241.3520
  84268322.7930
  23944558.580    23944583.540                   125829191.4410   98048657.8930

 23  3  6 16  0 58.0000000  0  9G02G08G10G16G18G23G26G27G31
  25262172.540    25262180.200                   132753833.7170  103444701.3650

  24177556.440    24177574.020    24177574.740   127053989.7910   99003206.3600
  94878034.4550
  23763531.940    23763570.140                   124878569.2480   97308102.6930

  20863065.260    20863069.920                   109636289.1610   85430968.3160

  21357723.840    21357729.760    21357733.760   112236051.5850   87456870.1550
  83812586.2520
  22707909.280    22707920.080    22707924.400   119331493.6620   92985647.0110
  89110902.7440
  20282636.880    20282644.960    20282643.640   106586131.9730   83054246.8780
  79593664.1320
  21473533.360    21473542.220    21473542.720   112844474.6780   87930892.1620
  84267029.8270
  23945215.380    23945240.320                   125832642.6330   98051347.0680

 23  3  6 16  0 59.0000000  0  9G02G08G10G16G18G23G26G27G31
  25262786.480    25262794.160                   132757060.0040  103447215.3530

  24177058.280    24177075.880    24177076.600   127051372.0840   99001166.5990
  94876079.6900
  23762959.780    23762997.940                   124875562.6450   97305759.9280

  20862758.800    20862763.460                   109634678.7220   85429713.4320

  21358107.900    21358113.800    21358117.800   112238069.7760   87458442.7710
  83814093.3390
  22707535.900    22707546.680    22707551.020   119329531.5900   92984118.1290
  89109437.5740
  20282786.440    20282794.500    20282793.200   106586917.8240   83054859.2300
  79594250.9710
  21473203.900    21473212.760    21473213.260   112842743.4220   87929543.1340
  84265737.0050
  23945872.160    23945897.120                   125836093.8330   98054036.2490

 23  3  6 16  1  0.0000000  0  9G02G08G10G16G18G23G26G27G31
  25263400.400    25263408.060                   132760286.1510  103449729.2420

  24176560.100    24176577.720    24176578.440   127048754.2960   98999126.7790
  94874124.8560
  23762387.580    23762425.720                   124872556.0080   97303417.1410

  20862452.380    20862457.060                   109633068.5310   85428458.7420

  21358492.000    21358497.900    21358501.900   112240088.2640   87460015.6190
  83815600.6440
  22707162.580    22707173.360    22707177.680   119327569.7960   92982589.4650
  89107972.6150
  20282936.040    20282944.120    20282942.800   106587704.0350   83055471.8620
  79594838.0740
  21472874.460    21472883.340    21472883.820   112841012.2430   87928194.1690
  84264444.2490
  23946528.940    23946553.920                   125839544.9300   98056725.3560

 23  3  6 16  1  1.0000000  0  9G02G08G10G16G18G23G26G27G31
  25264014.280    25264021.960                   132763512.1050  103452242.9660

  24176061.940    24176079.560    24176080.280   127046136.4480   98997086.9070
  94872169.9850
  23761815.380    23761853.500                   124869549.2980   97301074.2950

  20862146.020    20862150.680                   109631458.5590   85427204.2210

  21358876.160    21358882.060    21358886.060   112242107.0040   87461588.6660
  83817108.1470
  22706789.300    22706800.060    22706804.400   119325608.2800   92981061.0210
  89106507.8490
  20283085.720    20283093.800    20283092.480   106588490.5770   83056084.7520
  79595425.4250
  21472545.040    21472553.920    21472554.400   112839281.1320   87926845.2570
  84263151.5320
  23947185.720    23947210.660                   125842995.9040   98059414.3610

 23  3  6 16  1  2.0000000  0  9G02G08G10G16G18G23G26G27G31
  25264628.140    25264635.820                   132766737.9920  103454756.6470

  24175563.760    24175581.380    24175582.100   127043518.6070   98995047.0520
  94870215.1060
  23761243.220    23761281.300                   124866542.6240   97298731.4730

  20861839.700    20861844.380                   109629848.9100   85425949.9510

  21359260.380    21359266.280    21359270.300   112244126.1260   87463162.0030
  83818615.9260
  22706416.100    22706426.860    22706431.180   119323647.1300   92979532.8590
  89105043.3680
  20283235.480    20283243.560    20283242.240   106589277.5640   83056697.9860
  79596013.1060
  21472215.640    21472224.520    21472225.000   112837550.1760   87925496.4640
  84261858.9460
  23947842.480    23947867.420                   125846446.8380   98062103.3360

 23  3  6 16  1  3.0000000  0  9G02G08G10G16G18G23G26G27G31
  25265242.040    25265249.700                   132769963.9690  103457270.3930

  24175065.640    24175083.240    24175083.980   127040900.9450   98993007.3400
  94868260.3820
  23760671.080    23760709.100                   124863536.1360   97296388.7970

  20861533.500    20861538.160                   109628239.7610   85424696.0700

  21359644.720    21359650.600    21359654.620   112246145.7750   87464735.7540
  83820124.1080
  22706043.000    22706053.760    22706058.080   119321686.5130   92978005.1090
  89103579.2800
  20283385.360    20283393.440    20283392.120   106590065.1570   83057311.6930
  79596601.2360
  21471886.320    21471895.200    21471895.660   112835819.5580   87924147.9330
  84260566.6080
  23948499.240    23948524.200                   125849897.9460   98064792.4470

 23  3  6 16  1  4.0000000  0  9G02G08G10G16G18G23G26G27G31
  25265855.900    25265863.560                   132773189.8880  103459784.0980

  24174567.520    24174585.100    24174585.880   127038283.3650   98990967.6890
  94866305.7010
  23760098.940    23760136.940                   124860529.7150   97294046.1700

  20861227.340    20861232.000                   109626630.9470   85423442.4530

  21360029.140    21360035.000    21360039.040   112248165.8160   87466309.8110
  83821632.5800
  22705669.940    22705680.720    22705685.040   119319726.2770   92976477.6650
  89102115.4850
  20283535.320    20283543.380    20283542.080   106590853.1840   83057925.7380
  79597189.7070
  21471557.020    21471565.900    21471566.380   112834089.1230   87922799.5460
  84259274.4040
  23949156.000    23949180.980                   125853349.0360   98067481.5450

 23  3  6 16  1  5.0000000  0  9G02G08G10G16G18G23G26G27G31
  25266469.780    25266477.400                   132776415.7840  103462297.7790

  24174069.420    24174087.000    24174087.780   127035665.8290   98988928.0760
  94864351.0710
  23759526.820    23759564.780                   124857523.3830   97291703.6100

  20860921.260    20860925.940                   109625022.5200   85422189.1340

  21360413.620    21360419.500    21360423.520   112250186.2900   87467884.2050
  83823141.3780
  22705297.000    22705307.780    22705312.100   119317766.4980   92974950.5710
  89100652.0060
  20283685.380    20283693.440    20283692.140   106591641.7200   83058540.1800
  79597778.5470
  21471227.780    21471236.660    21471237.120   112832358.9280   87921451.3450
  84257982.3790
  23949812.800    23949837.760                   125856800.1730   98070170.6810

 23  3  6 16  1  6.0000000  0  9G02G08G10G16G18G23G26G27G31
  25267083.640    25267091.260                   132779641.6370  103464811.4390

  24173571.320    24173588.940    24173589.680   127033048.3720   98986888.5050
  94862396.4940
  23758954.700    23758992.640                   124854517.1160   97289361.1050

