     2.11           OBSERVATION DATA    M (MIXED)           RINEX VERSION / TYPE
Mdb2Rinex 5.6.29X   Unknown             20230309 235853 UTC PGM / RUN BY / DATE
gfzrnx-1.15-8044    HEADER EDIT         20230302 033721 UTC COMMENT
SNR is mapped to RINEX snr flag value [1-9]                 COMMENT
LX:     < 12dBHz -> 1; 12-17dBHz -> 2; 18-23dBHz -> 3       COMMENT
       24-29dBHz -> 4; 30-35dBHz -> 5; 36-41dBHz -> 6       COMMENT
       42-47dBHz -> 7; 48-53dBHz -> 8; >= 54dBHz -> 9       COMMENT
Map of observations from RINEX 3 to RINEX 2.11              COMMENT
 G: C1C->C1 C2W->P2 C5Q->C5 L1C->L1 L2W->L2 L5Q->L5         COMMENT
MAD1                                                        MARKER NAME
IGN & CAM           Unknown                                 OBSERVER / AGENCY
1833575             LEICA GR50          4.61/7.811          REC # / TYPE / VERS
Unknown             LEIAR20         LEIM                    ANT # / TYPE
  4854006.8637  -312714.6848  4112992.0029                  APPROX POSITION XYZ
        0.0350        0.0000        0.0000                  ANTENNA: DELTA H/E/N
     6    C1    P2    C5    L1    L2    L5                  # / TYPES OF OBSERV
    30.000                                                  INTERVAL
  2023    03    01    00    00   00.0000000     GPS         TIME OF FIRST OBS
  2023    03    01    23    59   30.0000000     GPS         TIME OF LAST OBS
    32                                                      # OF SATELLITES
   G01   905   905   906   903   903   906                  PRN / # OF OBS
   G02  1147  1140        1143  1140                        PRN / # OF OBS
   G03   873   865   865   864   856   865                  PRN / # OF OBS
   G04   982   978   984   977   976   984                  PRN / # OF OBS
   G05  1022  1021        1017  1017                        PRN / # OF OBS
   G06  1055  1055  1059  1048  1048  1059                  PRN / # OF OBS
   G07  1104  1089        1095  1083                        PRN / # OF OBS
   G08   865   864   866   862   862   866                  PRN / # OF OBS
   G09   828   828   818   826   826   818                  PRN / # OF OBS
   G10  1064  1061  1058  1060  1058  1058                  PRN / # OF OBS
   G11  1101  1099  1103  1100  1099  1103                  PRN / # OF OBS
   G12   868   868         867   867                        PRN / # OF OBS
   G13   899   891         892   891                        PRN / # OF OBS
   G14  1147  1144  1150  1144  1142  1150                  PRN / # OF OBS
   G15   835   835         834   834                        PRN / # OF OBS
   G16   879   827         863   821                        PRN / # OF OBS
   G17  1127  1127        1127  1127                        PRN / # OF OBS
   G18  1028  1024  1009  1025  1022  1009                  PRN / # OF OBS
   G19  1145  1143        1141  1140                        PRN / # OF OBS
   G20   934   896         914   888                        PRN / # OF OBS
   G21   945   942         940   939                        PRN / # OF OBS
   G22     1                 1                              PRN / # OF OBS
   G23  1102  1097  1098  1096  1094  1098                  PRN / # OF OBS
   G24   860   860   868   859   859   868                  PRN / # OF OBS
   G25   900   899   904   893   893   904                  PRN / # OF OBS
   G26   812   811   814   811   810   814                  PRN / # OF OBS
   G27   901   900   904   900   899   904                  PRN / # OF OBS
   G28   970   964   979   962   958   979                  PRN / # OF OBS
   G29   963   960         962   960                        PRN / # OF OBS
   G30   990   987   993   979   978   993                  PRN / # OF OBS
   G31   996   995         992   992                        PRN / # OF OBS
   G32  1112  1112  1109  1109  1109  1109                  PRN / # OF OBS
                                                            END OF HEADER
 23  3  1  0  0  0.0000000  0  9G01G03G04G06G09G17G19G21G28
  22401955.880    22401957.660    22401957.320   117723207.8240   91732456.5700
  87910364.4260
  21176031.300    21176031.460    21176031.760   111281029.4510   86712618.5000
  83099874.6280
  20434778.320    20434777.200    20434781.600   107385995.2410   83677369.5700
  80190814.5760
  22499908.020    22499908.860    22499909.480   118237825.3630   92133381.9830
  88294511.1830
  21609125.960    21609126.260    21609127.160   113556916.4500   88486085.1030
  84799270.0420
  21333652.820    21333650.860                   112109157.6180   87357789.6860

  21331799.480    21331795.800                   112099375.1570   87350148.8430

  24326936.940    24326935.660                   127839356.1870   99615026.1810

  25263618.980    25263616.420    25263620.880   132761228.6520  103450289.3950
  99139900.5770
 23  3  1  0  0 30.0000000  0  9G01G03G04G06G09G17G19G21G28
  22418185.280    22418187.180    22418186.900   117808494.4860   91798913.6700
  87974052.4820
  21185581.880    21185582.060    21185582.380   111331218.0300   86751726.4750
  83137353.1110
  20431247.580    20431246.380    20431250.820   107367440.9720   83662911.7060
  80176959.1230
  22483491.200    22483492.160    22483492.800   118151554.6860   92066158.1010
  88230088.2970
  21593692.960    21593693.200    21593694.100   113475815.4410   88422889.5330
  84738707.6260
  21340425.980    21340424.040                   112144750.7590   87385524.5850

  21328145.780    21328142.060                   112080174.7680   87335187.4990

  24342729.800    24342728.840                   127922349.4880   99679696.2220

  25273807.820    25273805.280    25273809.700   132814771.3290  103492010.9790
  99179883.7750
 23  3  1  0  1  0.0000000  0  9G01G03G04G06G09G17G19G21G28
  22434465.540    22434467.360    22434467.140   117894047.4120   91865578.2610
  88037939.3700
  21195172.440    21195172.620    21195173.120   111381616.8680   86790998.2910
  83174988.5890
  20427823.400    20427822.200    20427826.600   107349446.8340   83648890.3110
  80163521.9500
  22467102.340    22467103.420    22467104.060   118065431.1050   91999048.8380
  88165775.2530
  21578333.560    21578333.700    21578334.580   113395101.1880   88359995.3310
  84678434.0090
  21347298.200    21347296.260                   112180864.5790   87413665.2050

  21324616.260    21324612.440                   112061626.9730   87320734.6650

  24358552.300    24358551.520                   128005498.0460   99744487.2800

  25284084.760    25284082.020    25284086.620   132868776.8030  103534093.1770
  99220212.5760
 23  3  1  0  1 30.0000000  0  9G01G03G04G06G09G17G19G21G28
  22450796.220    22450797.840    22450797.660   117979864.9600   91932449.0510
  88102023.8800
  21204802.720    21204802.880    21204803.720   111432224.4070   86830432.7350
  83212779.9310
  20424505.700    20424504.500    20424508.820   107332012.2560   83635304.9390
  80150502.6420
  22450741.740    22450742.900    22450743.540   117979455.9320   91932055.2190
  88101573.0380
  21563047.980    21563047.960    21563048.880   113314774.8130   88297403.3650
  84618450.0490
  21354269.120    21354267.160                   112217497.1080   87442210.0170

  21321210.920    21321207.060                   112043731.7750   87306790.3530

  24374404.360    24374403.520                   128088800.1930   99809398.0420

  25294449.180    25294446.320    25294451.280   132923242.7680  103576534.2280
  99260885.2000
 23  3  1  0  2  0.0000000  0  9G01G03G04G06G09G17G19G21G28
  22467177.440    22467178.880    22467178.720   118065948.1370   91999526.8320
  88166306.7390
  21214472.900    21214473.080    21214474.140   111483041.7350   86870030.6470
  83250727.9220
  20421294.880    20421293.700    20421297.880   107315139.2640   83622157.1660
  80137902.6880
  22434410.160    22434411.400    22434411.980   117893633.0860   91865180.2880
  88037484.5580
  21547836.940    21547836.760    21547837.820   113234840.0460   88235116.5430
  84558758.5200
  21361338.860    21361336.840                   112254648.6250   87471159.2360

  21317930.240    21317926.360                   112026491.5410   87293356.3960

  24390285.800    24390284.980                   128172256.8110   99874429.1610

  25304901.300    25304898.560    25304903.600   132978169.5070  103619334.2720
  99301901.9230
 23  3  1  0  2 30.0000000  0  9G01G03G04G06G09G17G19G21G28
  22483608.340    22483609.820    22483609.560   118152293.0890   92066808.5810
  88230785.0670
  21224182.340    21224182.600    21224183.540   111534065.0870   86909789.0990
  83288829.7740
  20418190.400    20418189.220    20418193.280   107298824.9810   83609444.7470
  80125719.9520
  22418107.420    22418108.700    22418109.260   117807961.6220   91798423.3220
  87973509.1280
  21532700.160    21532699.960    21532701.160   113155295.7950   88173134.0190
  84499358.6110
  21368506.540    21368504.420                   112292314.9060   87500509.5690

  21314773.780    21314769.900                   112009904.2970   87280431.2690

  24406196.140    24406194.980                   128255864.6650   99939578.1620

  25315440.380    25315437.660    25315442.740   133033552.4910  103662489.8550
  99343259.3450
 23  3  1  0  3  0.0000000  0  9G01G03G04G06G09G17G19G21G28
  22500089.280    22500090.700    22500090.280   118238900.2410   92134294.6410
  88295459.2110
  21233931.140    21233931.440    21233932.320   111585295.0950   86949708.5780
  83327085.9470
  20415192.520    20415191.280    20415195.300   107283070.9180   83597168.8640
  80113955.5640
  22401834.220    22401835.400    22401836.040   117722445.0170   91731787.0220
  87909649.3580
  21517638.340    21517638.120    21517639.440   113076145.2530   88111458.2790
  84440252.7050
  21375772.220    21375770.000                   112330496.1440   87530261.1620

  21311741.980    21311738.100                   111993972.0650   87268016.5410

  24422135.360    24422134.200                   128339624.2150  100004845.3610

  25326066.160    25326063.340    25326068.620   133089391.5100  103706000.7440
  99384957.3090
 23  3  1  0  3 30.0000000  0  9G01G03G04G06G09G17G19G21G28
  22516620.260    22516621.620    22516621.040   118325770.3310   92201985.5960
  88360329.6910
  21243719.400    21243719.660    21243720.600   111636732.5940   86989789.7430
  83365497.0600
  20412301.560    20412300.260    20412304.340   107267878.7650   83585330.8350
  80102610.7900
  22385591.060    22385592.280    22385592.860   117637086.9530   91665274.2700
  87845907.9720
  21502652.040    21502651.880    21502653.220   112997391.8910   88050092.0210
  84381443.3750
  21383135.940    21383133.660                   112369192.7640   87560414.3540

  21308835.300    21308831.420                   111978697.2820   87256114.1000

  24438103.440    24438102.240                   128423536.2880  100070231.4010

  25336778.740    25336776.040    25336781.160   133145686.5930  103749867.0520
  99426995.8140
 23  3  1  0  4  0.0000000  0  9G01G03G04G06G09G17G19G21G28
  22533200.080    22533201.480    22533200.840   118412898.0130   92269877.2690
  88425392.5410
  21253546.160    21253546.380    21253547.300   111688372.4060   87030028.5540
  83404059.2530
  20409516.700    20409515.380    20409519.520   107253244.2060   83573927.2930
  80091682.3940
  22369377.620    22369378.780    22369379.520   117551885.1180   91598883.2500
  87782283.2430
  21487740.820    21487740.740    21487742.020   112919033.1660   87989033.2750
  84322928.7450
  21390596.600    21390594.320                   112408398.8890   87590964.5590

  21306052.940    21306049.020                   111964075.7770   87244720.7110

  24454099.540    24454098.180                   128507595.6490  100135732.2040

  25347577.060    25347574.260    25347579.180   133202431.7770  103794084.0350
  99469370.4640
 23  3  1  0  4 30.0000000  0  9G01G03G04G06G09G17G19G21G28
  22549829.500    22549830.960    22549830.320   118500286.7960   92337972.3900
  88490650.3550
  21263412.120    21263412.320    21263413.240   111740218.1920   87070427.8610
  83442775.2600
  20406838.740    20406837.420    20406841.660   107239171.6490   83562961.6750
  80081173.6820
  22353195.220    22353196.260    22353197.140   117466845.9720   91532618.9930
  87718780.0040
  21472905.860    21472905.840    21472907.060   112841075.2800   87928286.8680
  84264713.4460
  21398154.900    21398152.560                   112448117.7500   87621914.3010

  21303395.960    21303392.020                   111950113.2420   87233840.8080

  24470124.280    24470123.120                   128591806.2470  100201350.8420

  25358461.480    25358458.680    25358463.540   133259629.7240  103838653.9140
  99512083.2620
 23  3  1  0  5  0.0000000  0  9G01G03G04G06G09G17G19G21G28
  22566508.180    22566509.560    22566509.100   118587934.0030   92406268.8860
  88556101.1510
  21273316.800    21273317.000    21273317.840   111792267.4760   87110985.7390
  83481643.2250
  20404267.420    20404266.120    20404270.420   107225659.4060   83552432.6660
  80071083.3860
  22337043.840    22337044.780    22337045.780   117381969.9000   91466481.8060
  87655398.5430
  21458147.180    21458147.240    21458148.440   112763518.3420   87867852.9010
  84206797.5660
  21405810.180    21405807.840                   112488346.1300   87653261.0670

  21300864.080    21300860.100                   111936808.1380   87223473.1760

  24486177.220    24486176.240                   128676165.3550  100267085.1810

  25369431.400    25369428.700    25369433.660   133317277.1220  103883573.9450
  99555131.5810
 23  3  1  0  5 30.0000000  0  9G01G03G04G06G09G17G19G21G28
  22583235.360    22583236.680    22583236.440   118675835.8560   92474763.8140
  88621742.1290
  21283259.520    21283259.720    21283260.460   111844516.6990   87151699.4170
  83520660.5050
  20401802.160    20401800.940    20401805.280   107212704.6580   83542338.0660
  80061409.4080
  22320923.340    22320924.180    22320925.320   117297256.1980   91400471.1430
  87592138.3330
  21443464.620    21443464.700    21443465.920   112686361.3150   87807730.5560
  84149180.3340
  21413561.620    21413559.300                   112529079.8170   87685001.5840

  21298456.860    21298452.880                   111924158.2780   87213616.1290

  24502257.740    24502256.780                   128760669.4070  100332932.4720

  25380486.120    25380483.360    25380488.360   133375369.5290  103928840.7290
  99598512.2510
 23  3  1  0  6  0.0000000  0  9G01G03G04G06G09G17G19G21G28
  22600011.840    22600013.180    22600013.060   118763996.4600   92543460.3640
  88687576.3170
  21293241.060    21293241.220    21293241.960   111896970.1220   87192572.2080
  83559830.2570
  20399443.960    20399442.820    20399447.160   107200312.4280   83532681.7950
  80052155.4750
  22304835.120    22304835.820    22304837.100   117212711.9990   91334592.5570
  87529004.7060
  21428859.440    21428859.580    21428860.780   112609610.9680   87747925.1070
  84091866.7940
  21421409.760    21421407.580                   112570322.2180   87717138.5020

  21296175.460    21296171.520                   111912169.6100   87204274.3050

  24518366.740    24518365.840                   128845322.7130  100398896.0320

  25391626.000    25391623.560    25391628.320   133433910.1270  103974456.7540
  99642227.5950
 23  3  1  0  6 30.0000000  0  9G01G03G04G06G09G17G19G21G28
  22616836.360    22616837.740    22616837.800   118852409.9040   92612353.9240
  88753599.3100
  21303260.400    21303260.580    21303261.260   111949622.0720   87233599.7020
  83599148.2680
  20397191.880    20397190.780    20397195.100   107188477.6730   83523459.9180
  80043317.8470
  22288778.600    22288779.320    22288780.560   117128334.4700   91268843.8540
  87465995.5210
  21414331.080    21414331.260    21414332.360   112533264.1520   87688434.1040
  84034854.5890
  21429353.520    21429351.480                   112612067.2430   87749667.0760

  21294019.000    21294015.040                   111900837.2630   87195443.8980

  24534503.020    24534502.120                   128930119.3580  100464971.3250

  25402850.000    25402847.360    25402852.300   133492892.3490  104020416.8970
  99686272.7330
 23  3  1  0  7  0.0000000  0  9G01G03G04G06G09G17G19G21G28
  22633709.540    22633710.760    22633710.960   118941078.5590   92681446.3580
  88819812.8860
  21313317.960    21313318.280    21313318.920   112002475.1800   87274783.9360
  83638616.4940
  20395046.520    20395045.460    20395049.740   107177203.7060   83514675.0170
  80034898.9880
  22272754.800    22272755.580    22272756.840   117044129.0500   91203229.2580
  87403114.8890
  21399880.560    21399880.680    21399881.660   112457325.9810   87629261.5220
  83978147.5380
  21437393.140    21437391.260                   112654316.4740   87782588.5410

  21291988.240    21291984.180                   111890165.1770   87187127.9810

  24550667.140    24550666.020                   129015061.8090  100531160.2110

  25414158.240    25414155.680    25414160.640   133552317.9240  104066722.5240
  99730648.9310
 23  3  1  0  7 30.0000000  0  9G01G03G04G06G09G17G19G21G28
  22650630.560    22650631.560    22650631.900   119029998.5930   92750734.6720
  88886214.1640
  21323413.080    21323413.520    21323414.180   112055525.8040   87316122.0820
  83678232.2120
  20393007.300    20393006.280    20393010.520   107166487.5540   83506324.7830
  80026896.6740
  22256763.580    22256764.380    22256765.720   116960095.0220   91137748.2170
  87340362.2240
  21385507.600    21385507.700    21385508.520   112381795.2690   87570406.4380
  83921744.7580
  21445527.980    21445526.180                   112697065.8940   87815899.7600

  21290082.660    21290078.500                   111880150.9180   87179324.6580

  24566858.280    24566856.920                   129100146.6750  100597460.0780

  25425550.120    25425547.480    25425552.300   133612182.1140  104113369.9080
  99775352.6880
 23  3  1  0  8  0.0000000  0  9G01G03G04G06G09G17G19G21G28
  22667599.560    22667600.440    22667600.840   119119171.2430   92820219.8310
  88952804.1080
  21333546.100    21333546.640    21333547.320   112108775.4510   87357615.3120
  83717996.5550
  20391074.680    20391073.620    20391077.840   107156331.3360   83498410.8590
  80019312.5010
  22240805.820    22240806.700    22240807.980   116876236.7450   91072404.1230
  87277740.8130
  21371212.920    21371213.020    21371213.780   112306675.9800   87511871.9500
  83865649.2120
  21453758.120    21453756.380                   112740316.0650   87849601.1740

  21288302.680    21288298.460                   111870796.8630   87172035.7760

  24583076.840    24583075.400                   129185375.5960  100663872.2020

  25437025.480    25437022.940    25437027.680   133672485.4900  104160359.5460
  99820384.3920
 23  3  1  0  8 30.0000000  0  9G01G03G04G06G09G17G19G21G28
  22684616.180    22684616.980    22684617.440   119208594.2450   92889900.0680
  89019580.9920
  21343716.620    21343717.260    21343717.880   112162222.1230   87399262.0690
  83757908.0270
  20389248.300    20389247.260    20389251.460   107146733.5760   83490932.0950
  80012145.3570
  22224881.660    22224882.680    22224883.880   116792555.0550   91007197.6350
  87215251.2540
  21356996.580    21356996.680    21356997.420   112231968.5380   87453658.3730
  83809861.1990
  21462083.080    21462081.300                   112784064.2200   87883690.6230

  21286648.200    21286643.940                   111862102.4620   87165260.9080

  24599322.380    24599320.680                   129270746.3610  100730394.8840

  25448583.780    25448581.320    25448586.020   133733224.9640  104207688.9110
  99865741.7430
 23  3  1  0  9  0.0000000  0  9G01G03G04G06G09G17G19G21G28
  22701680.440    22701681.140    22701681.580   119298267.2470   92959775.1200
  89086544.5800
  21353924.620    21353925.340    21353925.920   112215865.7750   87441062.3150
  83797966.5980
  20387528.320    20387527.280    20387531.440   107137694.8280   83483888.9170
  80005395.6500
  22208991.660    22208992.720    22208993.880   116709052.7780   90942130.9440
  87152895.6810
  21342859.080    21342859.100    21342859.880   112157675.3430   87395767.5920
  83754382.5380
  21470502.760    21470500.860                   112828309.5610   87918167.4980

  21285119.420    21285115.180                   111854068.8430   87159000.9320

  24615594.660    24615592.840                   129356258.2930  100797027.5520

  25460225.080    25460222.580    25460227.260   133794399.4990  104255357.3700
  99911423.9330
 23  3  1  0  9 30.0000000  0  9G01G03G04G06G09G17G19G21G28
  22718791.800    22718792.600    22718792.940   119388188.4480   93029843.5680
  89153693.5030
  21364169.800    21364170.600    21364171.180   112269704.8580   87483014.8420
  83838171.1070
  20385914.480    20385913.460    20385917.580   107129214.0630   83477280.5330
  79999062.6230
  22193136.080    22193137.180    22193138.280   116625731.2380   90877205.0920
  87090675.0830
  21328800.580    21328800.460    21328801.260   112083797.2370   87338200.2600
  83699213.8460
  21479016.560    21479014.520                   112873049.3300   87953029.6310

  21283716.200    21283712.080                   111846695.3600   87153255.3530

  24631893.520    24631891.660                   129441910.0370  100863769.1400

  25471948.320    25471945.860    25471950.720   133855991.3631  104303358.5611
  99957429.0690
 23  3  1  0 10  0.0000000  0  9G01G03G04G06G09G17G19G21G28
  22735949.860    22735950.900    22735951.120   119478355.4760   93100103.5550
  89221026.0000
  21374451.840    21374452.620    21374453.220   112323737.3070   87525118.0440
  83878520.0070
  20384406.520    20384405.540    20384409.520   107121289.7530   83471105.7560
  79993145.1310
  22177315.100    22177316.140    22177317.240   116542591.2080   90812420.6790
  87028590.0120
  21314821.080    21314820.900    21314821.740   112010334.5160   87280956.6030
  83644355.3420
  21487624.040    21487621.820                   112918281.0360   87988275.1000

  21282438.460    21282434.400                   111839981.0960   87148023.4550

  24648218.680    24648216.840                   129527699.6080  100930618.1540

  25483753.580                    25483756.060   133918028.6331
 100003754.7640
 23  3  1  0 10 30.0000000  0  9G01G03G04G06G09G17G19G21G28
  22753154.840    22753156.120    22753156.260   119568768.9480   93170555.5800
  89288542.5320
  21384770.900    21384771.600    21384772.240   112377964.0330   87567372.6320
  83919013.9830
  20383004.680    20383003.740    20383007.560   107113923.2520   83465365.6340
  79987644.1800
  22161529.380    22161530.340    22161531.440   116459636.5010   90747780.6610
  86966643.3380
  21300921.280    21300921.040    21300921.920   111937290.4670   87224039.1820
  83589809.4870
  21496325.080    21496322.740                   112964004.4850   88023903.7430

  21281286.400    21281282.380                   111833927.2190   87143306.1400

  24664570.100    24664568.540                   129613627.3200  100997574.7990

  25495640.440    25495637.820    25495642.760
 100050400.8380
 23  3  1  0 11  0.0000000  0 10G01G03G04G06G07G09G17G19G21G28
  22770407.060    22770408.320    22770408.600   119659429.8440   93241200.4120
  89356243.8190
  21395127.220    21395127.820    21395128.500   112432386.3600   87609779.6360
  83959654.0350
  20381709.340    20381708.400    20381712.120   107107116.4070   83460061.6110
  79982561.1660
  22145779.780    22145780.640    22145781.620   116376871.3340   90683288.3420
  86904838.2070
  25464499.300    25464513.420                   133816847.0661  104272886.9191

  21287101.840    21287101.620    21287102.520   111864668.7620   87167450.8570
  83535579.0060
  21505119.740    21505117.360                   113010220.3570   88059916.0980

  21280260.720    21280256.720                   111828537.0270   87139105.9780

  24680948.160    24680946.700                   129699695.0790  101064640.5280

  25507608.780                    25507611.120
 100097367.4950
 23  3  1  0 11 30.0000000  0 10G01G03G04G06G07G09G17G19G21G28
  22787700.800    22787702.100    22787702.540   119750309.2980   93312015.5460
  89424108.3090
  21405515.340    21405515.820    21405516.540   112486975.7370   87652316.8050
  84000418.8190
  20380515.120    20380514.160    20380517.820   107100841.0250   83455171.7150
  79977875.0160
  22130061.300    22130062.120    22130063.020   116294269.9650   90618923.6570
  86843155.3860
  25447894.560    25447909.020                   133729594.2070  104204899.3150

  21273357.760    21273357.600    21273358.460   111792443.1280   87111171.1610
  83481644.3040
  21514002.380    21514000.100                   113056898.9270   88096288.9930

  21279356.060    21279352.040                   111823782.5490   87135401.1800

  24697347.220    24697346.120                   129785873.2760  101131792.3430

  25519653.280                    25519655.680   134106682.4071
 100144632.4370
 23  3  1  0 12  0.0000000  0 10G01G03G04G06G07G09G17G19G21G28
  22805044.940    22805046.340    22805046.840   119841453.8520   93383037.2520
  89492170.7660
  21415944.080    21415944.500    21415945.360   112541779.0830   87695020.7090
  84041343.3940
  20379431.040    20379430.040    20379433.760   107095144.4200   83450732.8120
  79973621.0710
  22114383.440    22114384.220    22114385.020   116211882.1940   90554725.4100
  86781632.0720
  25431264.300    25431278.980                   133642209.6910  104136809.1630

  21259698.360    21259698.300    21259699.080   111720662.8120   87055238.4660
  83428042.1350
  21522981.720    21522979.620                   113104085.8790   88133058.0310

  21278581.400    21278577.360                   111819711.3470   87132228.8070

  24713776.580    24713775.280                   129872209.4490  101199067.2440

  25531782.420                    25531784.860
 100192229.9350
 23  3  1  0 12 30.0000000  0 10G01G03G04G06G07G09G17G19G21G28
  22822435.160    22822436.700    22822437.100   119932840.4190   93454247.5310
  89560413.9480
  21426409.220    21426409.600    21426410.440   112596773.6650   87737873.6250
  84082410.7650
  20378452.880    20378451.820    20378455.680   107090004.2380   83446727.4840
  79969782.6240
  22098742.460    22098743.140    22098743.940   116129688.1820   90490678.1400
  86720253.4320
  25414605.360    25414619.840                   133554673.4670  104068600.8460

  21246119.820    21246119.860    21246120.480   111649307.3890   86999636.8560
  83374757.2490
  21532053.380    21532051.400                   113151757.8090   88170204.9740

  21277932.540    21277928.520                   111816301.6750   87129571.9030

  24730231.660    24730230.200                   129958680.5790  101266447.3070

                                  25543993.960
 100240142.1120
 23  3  1  0 13  0.0000000  0 10G01G03G04G06G07G09G17G19G21G28
  22839871.280    22839872.900    22839873.120   120024467.5990   93525645.3130
  89628836.8140
  21436910.580    21436910.840    21436911.620   112651958.4190   87780874.7260
  84123620.1550
  20377580.480    20377579.380    20377583.380   107085419.8110   83443155.2110
  79966359.2040
  22083138.680    22083139.320    22083140.120   116047689.7250   90426783.2550
  86659020.8460
  25397917.540    25397932.120                   133466987.0310  104000275.5350

  21232622.340    21232622.500    21232622.920   111578378.0710   86944367.2760
  83321790.5740
  21541216.940    21541215.060                   113199912.6200   88207728.1860

  21277409.480    21277405.480                   111813553.0890   87127430.1370

  24746711.940    24746710.500                   130045285.0960  101333931.3270

                                  25556283.180
 100288367.2970
 23  3  1  0 13 30.0000000  0 10G01G03G04G06G07G09G17G19G21G28
  22857353.480    22857355.120    22857355.160   120116336.1940   93597231.2150
  89697439.9650
  21447448.360    21447448.500    21447449.260   112707334.5380   87824024.9440
  84164972.4490
  20376814.140    20376813.040    20376817.100   107081392.6200   83440017.1470
  79963351.8880
  22067572.860    22067573.500    22067574.340   115965890.8990   90363043.9270
  86597937.3150
  25381202.280    25381216.860                   133379154.8970  103931836.7100

  21219206.660    21219206.880    21219207.100   111507878.2620   86889432.3790
  83269144.6350
  21550472.380    21550470.580                   113248550.2650   88245627.6250

  21277012.620    21277008.620                   111811467.5420   87125805.0270

  24763217.720    24763216.520                   130132023.8970  101401519.9500

                                  25568652.420
 100336905.3510
 23  3  1  0 14  0.0000000  0 10G01G03G04G06G07G09G17G19G21G28
  22874880.300    22874882.080    22874881.860   120208439.4620   93668999.9760
  89766218.3610
  21458021.320    21458021.480    21458022.100   112762895.6860   87867319.3380
  84206462.9060
  20376152.660    20376151.640    20376155.680   107077916.6290   83437308.5910
  79960756.1900
  22052044.320    22052045.060    22052045.900   115884288.2410   90299457.4620
  86537000.2950
  25364458.800    25364473.140                   133291173.7890  103863281.8420

  21205871.900    21205872.180    21205872.300   111437803.8730   86834828.9700
  83216816.3760
  21559818.320    21559816.620                   113297663.6110   88283897.7380

  21276740.900    21276736.940                   111810039.6590   87124692.3790

  24779747.840    24779746.860                   130218890.9650  101469208.5830

                                  25581099.840
 100385750.8020
 23  3  1  0 14 30.0000000  0 10G01G03G04G06G07G09G17G19G21G28
  22892452.800    22892454.720    22892454.300   120300783.4880   93740956.3280
  89835176.5390
  21468630.720    21468630.900    21468631.440   112818648.3600   87910762.9770
  84248096.3900
  20375597.380    20375596.420    20375600.380   107074998.5840   83435034.8020
  79958577.1480
  22036554.900    22036555.720    22036556.640   115802891.1390   90236031.1800
  86476216.7660
  25347688.680    25347703.000                   133203052.9060  103794618.0900

  21192619.760    21192620.080    21192620.220   111368163.6070   86780563.8480
  83164812.3130
  21569255.780    21569254.140                   113347257.8950   88322542.6120

  21276595.680    21276591.720                   111809276.5760   87124097.7600

  24796303.580    24796302.740                   130305892.2260  101537001.7260

                                  25593626.480
 100434907.4710
 23  3  1  0 15  0.0000000  0 10G01G03G04G06G07G09G17G19G21G28
  22910070.640    22910072.600    22910072.140   120393365.8620   93813098.4050
  89904312.7020
  21479276.160    21479276.260    21479276.880   112874590.5560   87954354.2930
  84289871.4060
  20375147.980    20375147.040    20375150.900   107072636.7560   83433194.4240
  79956813.4590
  22021104.760    22021105.640    22021106.700   115721700.4360   90172765.7240
  86415587.3750
  25330892.080    25330906.240                   133114793.1800  103725846.1480

  21179450.300    21179450.560    21179450.880   111298957.6720   86726637.1620
  83113132.5840
  21578784.160    21578782.520                   113397329.9800   88361559.7950

  21276576.680    21276572.700                   111809176.8430   87124020.0340

  24812884.540    24812883.860                   130393025.5730  101604897.8050

                                  25606231.920
 100484352.0361
 23  3  1  0 15 30.0000000  0 10G01G03G04G06G07G09G17G19G21G28
  22927732.160    22927734.000    22927733.580   120486177.3400   93885419.0130
  89973619.9390
  21489956.000    21489956.080    21489956.720   112930713.4650   87998086.4260
  84331781.3590
  20374802.760    20374801.840    20374805.660   107070822.5520   83431780.7650
  79955458.7000
  22005692.800    22005693.700    22005694.880   115640710.2420   90109656.5020
  86355107.7040
  25314068.120    25314081.840                   133026388.8510  103656961.5350

  21166362.180    21166362.420    21166363.020   111230179.4210   86673043.7320
  83061772.2160
  21588401.660    21588399.960                   113447870.2100   88400941.7800

  21276682.340    21276678.440                   111809732.3450   87124452.8770

  24829488.860    24829488.140                   130480281.4640  101672889.3740

                                  25618914.080
 100534119.9321
 23  3  1  0 16  0.0000000  0  9G01G03G04G06G07G09G17G19G21
  22945438.020    22945439.900    22945439.340   120579221.9000   93957921.2420
  90043101.2330
  21500671.040    21500671.160    21500671.640   112987021.4990   88041962.8110
  84373829.5620
  20374562.640    20374561.700    20374565.500   107069560.5610   83430797.4030
  79954516.3160
  21990320.380    21990321.300    21990322.580   115559927.7850   90046709.1550
  86294783.1710
  25297217.860    25297231.300                   132937847.1680  103587969.8860

  21153356.680    21153356.920    21153357.820   111161835.4200   86619788.6870
  83010736.1360
  21598108.820    21598107.080                   113498881.5410   88440690.8480

  21276913.640    21276909.880                   111810948.0950   87125400.2040

  24846117.360    24846116.420                   130567664.6320  101740980.1150

 23  3  1  0 16 30.0000000  0  9G01G03G04G06G07G09G17G19G21
  22963187.980    22963189.980    22963189.200   120672498.2800   94030604.1030
  90112755.6420
  21511421.160    21511421.280    21511421.720   113043513.8420   88085982.8170
  84416015.4050
  20374427.440    20374426.480    20374430.320   107068850.1320   83430243.8310
  79953985.8130
  21974987.900    21974988.760    21974990.160   115479355.1740   89983925.3210
  86234615.3320
  25280341.800    25280355.000                   132849096.6081  103518831.1191

  21140434.140    21140434.320    21140435.460   111093926.9610   86566873.0270
  82960025.3060
  21607905.320    21607903.480                   113550362.0570   88480805.5140

  21277270.640    21277266.920                   111812823.9770   87126861.9180

  24862769.760    24862768.800                   130655173.3980  101809168.7440

 23  3  1  0 17  0.0000000  0  9G01G03G04G06G07G09G17G19G21
  22980983.660    22980985.780    22980984.900   120766015.1990   94103474.3970
  90182589.6730
  21522208.060    21522208.220    21522208.760   113100199.6070   88130153.5440
  84458345.6840
  20374398.980    20374397.980    20374401.900   107068700.5690   83430127.2920
  79953874.1300
  21959697.720    21959698.420    21959699.860   115399004.4420   89921314.3770
  86174613.1930
  25263442.440    25263455.400                   132760297.2580  103449638.6850

  21127596.640    21127596.760    21127598.040   111026465.3330   86514305.5390
  82909648.1280
  21617792.620    21617790.720                   113602319.9440   88521292.1680

  21277755.040    21277751.320                   111815369.1010   87128845.1150

  24879447.880    24879446.480                   130742817.0450  101877462.4210

 23  3  1  0 17 30.0000000  0  9G01G03G04G06G07G09G17G19G21
  22998820.600    22998822.720    22998821.860   120859748.6990   94176513.4680
  90252585.4390
  21533027.320    21533027.480    21533028.140   113157055.4360   88174456.7870
  84500802.9530
  20374472.780    20374471.800    20374475.780   107069088.5380   83430429.6130
  79954163.8630
  21944445.780    21944446.440    21944447.880   115318855.0270   89858860.2980
  86114761.3690
  25246515.820    25246528.500                   132671354.4160  103380334.3890

  21114840.140    21114840.180    21114841.520   110959429.1840   86462069.5990
  82859588.7030
  21627766.040    21627764.120                   113654730.3780   88562131.4510

  21278362.460    21278358.760                   111818560.8280   87131332.1650

  24896147.140    24896145.680                   130830571.8940  101945842.8330

 23  3  1  0 18  0.0000000  0  9G01G03G04G06G07G09G17G19G21
  23016701.680    23016703.740    23016702.880   120953714.1330   94249733.2530
  90322754.3970
  21543881.900    21543882.120    21543882.960   113214097.0460   88218904.7910
  84543398.9510
  20374651.900    20374650.920    20374655.000   107070029.9640   83431163.1990
  79954866.8780
  21929235.720    21929236.380    21929237.840   115238925.5700   89796577.6160
  86055073.8150
  25229565.420    25229577.880                   132582263.9161  103310906.9831

  21102168.020    21102168.020    21102169.320   110892836.3970   86410179.1260
  82809860.3370
  21637828.280    21637826.380                   113707607.7400   88603334.5760

  21279096.060    21279092.300                   111822415.4990   87134335.7970

  24912870.520    24912868.900                   130918453.5520  102014321.9490

 23  3  1  0 18 30.0000000  0  9G01G03G04G06G07G09G17G19G21
  23034626.600    23034628.680    23034627.760   121047910.3810   94323132.8940
  90393095.7210
  21554771.720    21554772.100    21554772.980   113271323.8830   88263497.1270
  84586133.2650
  20374936.200    20374935.260    20374939.420   107071524.2650   83432327.5930
  79955982.7620
  21914067.920    21914068.640    21914070.080   115159218.3850   89734468.1380
  85995552.2410
  25212591.640    25212603.940                   132493068.1261  103241403.2691

  21089580.480    21089580.560    21089581.720   110826688.4300   86358635.2810
  82760464.1630
  21647979.060    21647977.180                   113760950.2700   88644900.1700

  21279955.800    21279951.980                   111826932.9960   87137855.9110

  24929617.700    24929616.120                   131006460.8270  102082898.9990

 23  3  1  0 19  0.0000000  0  9G01G03G04G06G07G09G17G19G21
  23052594.060    23052596.020    23052595.060   121142329.5030   94396706.2160
  90463603.4720
  21565695.420    21565695.900    21565696.740   113328728.4770   88308227.9750
  84629000.3360
  20375324.340    20375323.420    20375327.640   107073564.0730   83433917.0640
  79957505.9990
  21898941.580    21898942.340    21898943.720   115079728.9100   89672528.3100
  85936193.2440
  25195593.960    25195605.960                   132403743.8111  103171798.9461

  21077076.540    21077076.700    21077077.700   110760979.8720   86307433.8290
  82711396.1090
  21658216.720    21658214.860                   113814749.4210   88686821.5780

  21280940.240    21280936.420                   111832106.1680   87141886.9410

  24946387.500    24946385.680                   131094586.0480  102151567.9680

 23  3  1  0 19 30.0000000  0  9G01G03G04G06G07G09G17G19G21
  23070604.660    23070606.440    23070605.560   121236975.1880   94470456.0690
  90534280.3990
  21576653.780    21576654.260    21576655.220   113386315.0870   88353100.6500
  84672003.3120
  20375817.140    20375816.200    20375820.440   107076153.6250   83435934.9030
  79959439.7610
  21883857.960    21883858.700    21883860.140   115000464.2360   89610763.6480
  85877002.1160
  25178573.620    25178585.240                   132314308.2860  103102110.6510

  21064657.380    21064657.600    21064658.400   110695716.9240   86256579.6030
  82662660.8190
  21668541.820    21668539.940                   113869007.9360   88729100.9320

  21282050.320    21282046.480                   111837939.6410   87146432.4900

  24963180.400    24963178.600                   131182832.9970  102220331.7870

 23  3  1  0 20  0.0000000  0  9G01G03G04G06G07G09G17G19G21
  23088657.740    23088659.440    23088658.660   121331844.3930   94544380.1010
  90605124.2490
  21587646.320    21587646.740    21587647.760   113444081.1220   88398113.1430
  84715140.2810
  20376414.080    20376413.100    20376417.360   107079290.3380   83438379.1050
  79961782.1230
  21868817.180    21868817.900    21868819.340   114921424.7080   89549174.4260
  85817979.1180
  25161530.680    25161541.920                   132224753.8260  103032329.7300

  21052322.920    21052323.100    21052323.800   110630899.0830   86206072.2120
  82614257.9170
  21678953.560    21678951.640                   113923721.7570   88771735.0720

  21283285.520    21283281.700                   111844430.8660   87151490.5710

  24979996.020    24979994.240                   131271198.5410  102289188.0020

 23  3  1  0 20 30.0000000  0  9G01G03G04G06G07G09G17G19G21
  23106752.900    23106754.580    23106753.840   121426934.9120   94618476.5840
  90676133.3710
  21598672.680    21598673.000    21598674.080   113502024.9830   88443264.1950
  84758410.0450
  20377114.800    20377113.760    20377118.020   107082972.5650   83441248.3850
  79964531.8480
  21853819.500    21853820.260    21853821.600   114842611.5680   89487761.6050
  85759125.1650
  25144465.420    25144476.060                   132135081.5750  102962456.8760

  21040073.240    21040073.320    21040073.980   110566526.6720   86155911.9070
  82566187.6280
  21689451.440    21689449.420                   113978888.2730   88814721.9640

  21284645.680    21284641.900                   111851578.6780   87157060.2820

  24996833.840    24996831.880                   131359680.7920  102358135.1760

 23  3  1  0 21  0.0000000  0  9G01G03G04G06G07G09G17G19G21
  23124890.380    23124891.960    23124891.260   121522247.7340   94692746.2890
  90747308.5150
  21609733.160    21609733.420    21609734.640   113560148.1660   88488554.9750
  84801813.7050
  20377919.620    20377918.460    20377922.700   107087201.7830   83444543.8860
  79967690.0340
  21838865.780    21838866.540    21838867.840   114764029.1970   89426528.6050
  85700443.5460
  25127378.640    25127388.780                   132045296.4540  102892496.0600

  21027908.960    21027909.000    21027909.680   110502603.1670   86106101.3920
  82518452.5570
  21700035.440    21700033.340                   114034507.5690   88858061.6620

  21286131.140    21286127.420                   111859384.8580   87163143.0050

  25013693.920    25013691.740                   131448280.7820  102427174.1000

 23  3  1  0 21 30.0000000  0 10G01G03G04G06G07G09G11G17G19G21
  23143069.600    23143071.000    23143070.380   121617779.7570   94767186.7980
  90818647.3330
  21620827.320    21620827.500    21620828.680   113618448.1490   88533983.5270
  84845349.3950
  20378827.980    20378826.760    20378830.880   107091975.3420   83448263.5540
  79971254.7210
  21823955.960    21823956.840    21823958.020   114685677.9530   89365475.7060
  85641934.5230
  25110270.560    25110280.000                   131955398.6990  102822447.4020

  21015830.000    21015830.020    21015830.780   110439127.9720   86056640.2210
  82471052.2680
  25534798.240    25534796.720    25534800.500   134186262.7461  104560717.9201
 100204040.6461
  21710704.740    21710702.580                   114090575.4310   88901750.8980

  21287741.440    21287737.780                   111867847.1330   87169736.9740

  25030576.040    25030573.840                   131536996.4250  102496303.1360

 23  3  1  0 22  0.0000000  0 10G01G03G04G06G07G09G11G17G19G21
  23161291.280    23161292.440    23161292.020   121713534.9720   94841801.2280
  90890152.8230
  21631956.020    21631956.080    21631957.020   113676929.4840   88579553.3900
  84889020.5220
  20379840.780    20379839.500    20379843.460   107097297.7020   83452410.8520
  79975229.2200
  21809091.600    21809092.500    21809093.540   114607565.2690   89304608.6960
  85583603.6430
  25093142.400    25093151.200                   131865395.8720  102752316.7670

  21003837.560    21003837.620    21003838.480   110376107.5660   86007533.4360
  82423991.6090
  25515192.620    25515191.120    25515195.320   134083235.8730  104480437.2130
 100127104.9610
  21721460.020    21721457.920                   114147095.4420   88945792.4540

  21289477.460    21289473.840                   111876969.9850   87176845.6790

  25047480.840    25047478.620                   131625831.5480  102565525.2670

 23  3  1  0 22 30.0000000  0 10G01G03G04G06G07G09G11G17G19G21
  23179553.040    23179554.100    23179553.860   121809501.2310   94916580.1090
  90961815.9140
  21643117.020    21643117.060    21643117.720   113735580.6510   88625255.5900
  84932818.4670
  20380955.760    20380954.480    20380958.260   107103157.1950   83456976.6970
  79979604.8280
  21794271.000    21794271.960    21794272.780   114529682.5060   89243920.8430
  85525444.4520
  25075992.800    25076000.860                   131775279.4080  102682097.5480

  20991929.840    20991929.900    20991930.860   110313532.3070   85958773.5280
  82377263.3660
  25495578.800    25495577.460    25495581.860   133980165.7830  104400122.8100
 100050136.9840
  21732298.780    21732296.800                   114204054.0310   88990175.7600

  21291337.000    21291333.380                   111886742.0760   87184460.2850

  25064406.000    25064403.620                   131714774.1120  102634831.0950

 23  3  1  0 23  0.0000000  0 10G01G03G04G06G07G09G11G17G19G21
  23197856.420    23197857.480    23197857.280   121905686.2100   94991529.4210
  91033642.3340
  21654311.880    21654312.000    21654312.480   113794409.8380   88671096.5030
  84976749.3510
  20382174.500    20382173.240    20382176.940   107109561.8880   83461967.3750
  79984387.5660
  21779496.360    21779497.240    21779497.900   114452040.7500   89183420.7860
  85467465.2320
  25058823.780    25058831.040                   131685060.7430  102611798.5960

  20980108.780    20980108.820    20980109.840   110251412.2990   85910368.3540
  82330875.0780
  25475958.880    25475957.800    25475962.040   133877062.6810  104319782.7100
  99973144.3940
  21743222.360    21743220.540                   114261458.3120   89034906.3520

  21293321.700    21293318.020                   111897171.8600   87192587.3800

  25081353.080    25081350.780                   131803831.5390  102704226.4500

 23  3  1  0 23 30.0000000  0 11G01G03G04G06G07G09G11G17G19G21G31
  23216200.300    23216201.440    23216201.260   122002084.2320   95066644.7280
  91105627.8340
  21665539.600    21665539.740    21665540.300   113853412.0340   88717072.2330
  85020809.4210
  20383495.980    20383494.800    20383498.460   107116506.5780   83467378.8320
  79989573.5400
  21764767.100    21764767.960    21764768.500   114374637.8450   89123106.8480
  85409664.3720
  25041634.920    25041641.720                   131594679.6331  102541336.2261

  20968373.740    20968373.760    20968374.860   110189744.3500   85862315.4230
  82284824.3540
  25456332.140    25456331.060    25456335.540   133773923.7520  104239414.6650
  99896125.0110
  21754229.540    21754227.880                   114319301.8350   89079979.2070

  21295430.580    21295426.840                   111908254.3250   87201223.0590

  25098320.980    25098318.980                   131892998.9340  102773707.4510

  25243856.940    25243854.000                   132657362.2271  103369358.3161

 23  3  1  0 24  0.0000000  0 11G01G03G04G06G07G09G11G17G19G21G31
  23234585.040    23234586.280    23234586.120   122098696.8660   95141927.2710
  91177773.5930
  21676800.700    21676800.840    21676801.460   113912589.4030   88763184.4630
  85065000.3040
  20384920.620    20384919.560    20384923.160   107123993.1960   83473212.5700
  79995164.2080
  21750084.240    21750085.080    21750085.520   114297478.8450   89062982.9710
  85352045.6560
  25024427.260    25024433.460                   131504257.4270  102470878.4930

  20956725.500    20956725.500    20956726.660   110128532.4430   85814617.8580
  82239114.1960
  25436699.540    25436698.360    25436702.820   133670753.1440  104159021.9640
  99819081.9710
  21765320.540    21765318.880                   114377585.1530   89125394.7580

  21297664.100    21297660.320                   111919991.5680   87210368.9580

  25115310.120    25115308.560                   131981844.5411  102842987.2191

  25256123.440    25256120.020                   132721821.4410  103419586.3040

 23  3  1  0 24 30.0000000  0 11G01G03G04G06G07G09G11G17G19G21G31
  23253009.920    23253011.220    23253011.160   122195520.3010   95217374.0790
  91250076.7840
  21688094.480    21688094.700    21688095.380   113971938.7650   88809430.7110
  85109319.6260
  20386447.760    20386446.780    20386450.380   107132018.3730   83479465.9650
  80001157.0510
  21735447.720    21735448.560    21735449.000   114220563.4390   89003048.9070
  85294608.8450
  25007200.760    25007206.420                   131413735.9260  102400343.3450

  20945163.780    20945163.760    20945164.980   110067775.2420   85767274.5920
  82193743.5720
  25417060.580    25417059.480    25417063.860   133567549.7840  104078603.7330
  99742014.5070
  21776494.320    21776492.660                   114436303.7080   89171149.4600

  21300021.640    21300017.860                   111932380.5920   87220022.7330

  25132319.800    25132318.340                   132071230.8501  102912640.8111

  25268475.800    25268472.440                   132786734.9100  103470168.2340

 23  3  1  0 25  0.0000000  0 11G01G03G04G06G07G09G11G17G19G21G31
  23271475.000    23271476.580    23271476.580   122292555.8780   95292986.1800
  91322538.3770
  21699421.380    21699421.600    21699422.280   114031462.0730   88855812.5140
  85153768.8500
  20388077.720    20388076.760    20388080.400   107140583.8150   83486140.3480
  80007553.3290
  21720858.420    21720859.320    21720859.720   114143896.4820   88943308.4370
  85237357.5610
  24989956.260    24989961.840                   131323120.1150  102329734.6520

  20933689.280    20933689.260    20933690.500   110007476.4980   85720288.5700
  82148715.3010
  25397416.280    25397415.220    25397419.540   133464317.8620  103998163.2290
  99664925.6870
  21787750.940    21787749.260                   114495457.4220   89217243.2510

  21302503.540    21302499.800                   111945422.9990   87230185.6330

  25149350.220    25149348.940                   132160726.3591  102982377.5091

  25280914.880    25280911.480                   132852103.0980  103521104.4780

 23  3  1  0 25 30.0000000  0 11G01G03G04G06G07G09G11G17G19G21G31
  23289979.800    23289981.580    23289981.640   122389799.7550   95368760.5810
  91395155.5170
  21710780.740    21710781.040    21710781.620   114091156.1630   88902327.3820
  85198345.5990
  20389809.820    20389808.820    20389812.540   107149686.0570   83493233.0060
  80014350.4630
  21706316.340    21706317.240    21706317.660   114067477.6240   88883761.2940
  85180291.5600
  24972694.060    24972699.300                   131232410.2650  102259052.6240

  20922301.720    20922301.740    20922302.960   109947634.8260   85673658.7160
  82104028.3620
  25377766.160    25377764.960    25377769.540   133361056.1580  103917699.5780
  99587814.6530
  21799089.620    21799087.900                   114555042.1300   89263672.8860

  21305109.220    21305105.500                   111959115.6850   87240855.2440

  25166400.720    25166399.480                   132250327.5071  103052196.5301

  25293439.800    25293436.320                   132917921.5500  103572391.5750

 23  3  1  0 26  0.0000000  0 11G01G03G04G06G07G09G11G17G19G21G31
  23308524.400    23308526.200    23308526.400   122487252.2050   95444697.5260
  91467928.4110
  21722172.820    21722173.200    21722173.820   114151022.0390   88948976.1170
  85243050.6350
  20391644.220    20391643.160    20391646.980   107159325.8150   83500744.5190
  80021548.9980
  21691822.260    21691823.100    21691823.620   113991310.8150   88824410.5470
  85123413.7540
  24955414.660    24955419.440                   131141609.8940  102188299.9860

  20911001.700    20911001.760    20911002.940   109888252.9830   85627387.1770
  82059684.8030
  25358111.200    25358109.920    25358114.500   133257767.8890  103837215.1610
  99510683.7600
  21810510.160    21810508.420                   114615057.2520   89310437.8930

  21307838.900    21307835.040                   111973459.6410   87252032.3420

  25183471.440    25183470.180                   132340034.1251  103122099.5441

  25306050.300    25306046.680                   132984189.8520  103624029.2480

 23  3  1  0 26 30.0000000  0 11G01G03G04G06G07G09G11G17G19G21G31
  23327108.340    23327110.020    23327110.360   122584910.9010   95520795.1850
  91540855.3200
  21733597.260    21733597.680    21733598.440   114211057.8920   88995757.2950
  85287882.5840
  20393580.480    20393579.420    20393583.300   107169500.9510   83508673.2000
  80029147.3190
  21677376.340    21677377.080    21677377.680   113915397.0790   88765256.9950
  85066724.9370
  24938118.300    24938122.780                   131050720.3510  102117477.8470

  20899789.180    20899789.280    20899790.400   109829330.8450   85581473.8390
  82015684.5270
  25338451.220    25338449.780    25338454.420   133154453.2560  103756710.2360
  99433533.2160
  21822011.920    21822010.120                   114675499.2140   89357535.5020

  21310692.140    21310688.240                   111988453.1080   87263715.5470

  25200561.940    25200560.440

  25318745.720    25318742.140                   133050904.7180  103676014.8210

 23  3  1  0 27  0.0000000  0 11G01G03G04G06G07G09G11G17G19G21G31
  23345731.700    23345733.280    23345733.760   122682777.0450   95597054.4930
  91613937.1550
  21745054.400    21745054.900    21745055.760   114271265.6850   89042672.4590
  85332842.9480
  20395618.980    20395617.880    20395621.800   107180213.0990   83517020.3350
  80037146.6630
  21662979.560    21662980.180    21662980.880   113839741.2640   88706304.4160
  85010228.7270
  24920805.840    24920809.960                   130959746.6330  102046590.0340

  20888664.860    20888665.000    20888666.040   109770872.1490   85535921.6290
  81972030.3220
  25318786.820    25318785.340    25318790.040   133051116.3940  103676187.9180
  99356366.0200
  21833594.940    21833593.040                   114736368.3320   89404965.9670

  21313669.160    21313665.280                   112004097.4880   87275905.9610

  25217672.300    25217671.120                   132519762.4421  103262145.7121

  25331526.160    25331522.620                   133118066.4940  103728348.6990

 23  3  1  0 27 30.0000000  0 11G01G03G04G06G07G09G11G17G19G21G31
  23364393.260    23364394.680    23364395.260   122780843.6870   95673470.0380
  91687168.7050
  21756543.080    21756543.640    21756544.560   114331639.1290   89089716.6930
  85377927.0040
  20397758.380    20397757.260    20397761.220   107191455.5830   83525780.7160
  80045542.0280
  21648631.200    21648631.800    21648632.540   113764339.9310   88647550.1410
  84953922.5590
  24903477.020    24903480.600                   130868685.6360  101975634.1750

  20877627.900    20877628.020    20877629.020   109712872.2620   85490726.9300
  81928718.7430
  25299117.520    25299115.980    25299120.660   132947753.1620  103595645.1440
  99279179.1160
  21845257.800    21845255.780                   114797656.7990   89452723.1890

  21316768.700    21316764.840                   112020385.8330   87288598.1650

  25234801.640    25234800.220                   132609777.5370  103332287.2830

  25344390.300    25344386.880                   133185667.6360  103781024.8970

 23  3  1  0 28  0.0000000  0 11G01G03G04G06G07G09G11G17G19G21G31
  23383093.980    23383095.260    23383096.020   122879116.3820   95750046.1410
  91760554.1200
  21768064.500    21768065.000    21768066.120   114392184.4900   89136894.8900
  85423139.4290
  20399999.800    20399998.660    20400002.660   107203234.2930   83534958.9390
  80054337.8250
  21634333.000    21634333.600    21634334.320   113689202.2520   88589001.3100
  84897813.2610
  24886133.240    24886136.640                   130777546.7630  101904617.6040

  20866679.720    20866679.780    20866680.820   109655339.1120   85445895.9210
  81885755.6900
  25279444.760    25279443.240    25279447.900   132844371.8900  103515088.2530
  99201978.8100
  21857001.260    21856999.260                   114859368.9960   89500810.5950

  21319992.060    21319988.200                   112037324.7020   87301797.2730

  25251950.880    25251949.740                   132699897.2410  103402510.3490

  25357338.700    25357335.660                   133253712.9040  103834047.1100

 23  3  1  0 28 30.0000000  0 11G01G03G04G06G07G09G11G17G19G21G31
  23401833.040    23401834.200    23401835.140   122977590.5120   95826779.2200
  91834089.9750
  21779617.880    21779618.320    21779619.460   114452897.8540   89184203.9980
  85468477.3290
  20402342.420    20402341.300    20402345.260   107215544.9130   83544551.6400
  80063530.8320
  21620084.760    21620085.380    21620086.140   113614327.1580   88530657.0820
  84841900.0470
  24868774.500    24868777.620                   130686328.9350  101833539.4710

  20855819.940    20855819.920    20855821.000   109598270.4750   85401426.8670
  81843139.5260
  25259768.160    25259766.660    25259771.260   132740970.9900  103434516.0950
  99124763.8010
  21868824.360    21868822.400                   114921499.6240   89549224.0470

  21323338.440    21323334.560                   112054909.9370   87315500.0460

  25269119.120    25269118.020                   132790116.8230  103472811.2730

  25370370.780    25370367.720                   133322196.7680  103887411.1580

 23  3  1  0 29  0.0000000  0 11G01G03G04G06G07G09G11G17G19G21G31
  23420609.560    23420610.680    23420611.880   123076262.0330   95903666.1000
  91907773.2280
  21791202.600    21791203.060    21791204.060   114513775.9630   89231641.4720
  85513938.2490
  20404785.540    20404784.440    20404788.360   107228383.6710   83554555.8780
  80073118.2310
  21605886.360    21605887.060    21605887.840   113539714.2470   88472517.1570
  84786182.6350
  24851400.740    24851403.700                   130595031.9790  101762399.6680

  20845048.220    20845048.120    20845049.240   109541664.6880   85357318.4770
  81800868.9930
  25240087.740    25240086.100    25240090.640   132637549.1330  103353927.5610
  99047533.1600
  21880726.160    21880724.180                   114984043.6220   89597959.6110

  21326807.160    21326803.260                   112073137.9050   87329703.6450

  25286305.840    25286304.500                   132880432.4060  103543186.9740

  25383485.380    25383482.400                   133391114.4240  103941113.2080

 23  3  1  0 29 30.0000000  0 11G01G03G04G06G07G09G11G17G19G21G31
  23439424.420    23439425.580    23439426.900   123175134.9860   95980709.9400
  91981606.8820
  21802819.560    21802820.040    21802820.940   114574823.5080   89279210.9750
  85559525.6830
  20407329.960    20407328.920    20407332.760   107241754.8570   83564974.9890
  80083103.2110
  21591739.340    21591740.080    21591740.920   113465371.1080   88414587.4500
  84730666.6600
  24834013.320    24834016.120                   130503663.6600  101691204.1980

  20834365.780    20834365.620    20834366.760   109485528.0720   85313575.6790
  81758948.8150
  25220404.660    25220402.960    25220407.460   132534113.3370  103273328.2210
  98970292.0750
  21892707.180    21892705.200                   115047003.9570   89647019.5880

  21330399.060    21330395.180                   112092013.2440   87344411.6910

  25303511.380    25303510.320                   132970848.0230  103613640.6400

  25396683.300    25396680.160                   133460469.1580  103995155.8020

 23  3  1  0 30  0.0000000  0 11G01G03G04G06G07G09G11G17G19G21G31
  23458276.700    23458277.900    23458279.220   123274204.3340   96057906.8070
  92055587.2050
  21814468.000    21814468.360    21814469.160   114636036.2290   89326909.1870
  85605236.4730
  20409974.760    20409973.780    20409977.600   107255653.7320   83575805.2920
  80093482.2570
  21577643.360    21577644.180    21577645.100   113391296.3060   88356866.8360
  84675351.0800
