     2.11           OBSERVATION DATA    M (MIXED)           RINEX VERSION / TYPE
Mdb2Rinex 4.97.35L  Unknown             20230402 185105 UTC PGM / RUN BY / DATE
gfzrnx-1.15-8044    HEADER EDIT         20220618 023513 UTC COMMENT
SNR is mapped to RINEX snr flag value [1-9]                 COMMENT
LX:     < 12dBHz -> 1; 12-17dBHz -> 2; 18-23dBHz -> 3       COMMENT
       24-29dBHz -> 4; 30-35dBHz -> 5; 36-41dBHz -> 6       COMMENT
       42-47dBHz -> 7; 48-53dBHz -> 8; >= 54dBHz -> 9       COMMENT
Map of observations from RINEX 3 to RINEX 2.11              COMMENT
 G: C1C->C1 C2W->P2 C5Q->C5 L1C->L1 L2W->L2 L5Q->L5         COMMENT
PENI                                                        MARKER NAME
IGN-E               Unknown                                 OBSERVER / AGENCY
1830119             LEICA GR25          3.11/6.713          REC # / TYPE / VERS
725137              LEIAR25.R4      LEIT                    ANT # / TYPE
  4864338.0680    30472.4770  4111614.2080                  APPROX POSITION XYZ
        0.0776        0.0000        0.0000                  ANTENNA: DELTA H/E/N
     6    C1    P2    C5    L1    L2    L5                  # / TYPES OF OBSERV
    30.000                                                  INTERVAL
  2022    06    17    00    00   00.0000000     GPS         TIME OF FIRST OBS
  2022    06    17    23    59   30.0000000     GPS         TIME OF LAST OBS
    31                                                      # OF SATELLITES
   G01   864   863   864   863   863   864                  PRN / # OF OBS
   G02  1118  1117        1117  1116                        PRN / # OF OBS
   G03   868   868   868   868   868   868                  PRN / # OF OBS
   G04   863   858   860   861   857   860                  PRN / # OF OBS
   G05  1026  1026        1024  1024                        PRN / # OF OBS
   G06  1026  1023  1025  1023  1023  1025                  PRN / # OF OBS
   G07  1022  1021        1019  1019                        PRN / # OF OBS
   G08   802   802   802   801   801   802                  PRN / # OF OBS
   G09   827   827   827   827   827   827                  PRN / # OF OBS
   G10  1080  1080  1077  1080  1080  1077                  PRN / # OF OBS
   G11  1077  1076  1077  1076  1076  1077                  PRN / # OF OBS
   G12   851   850         850   850                        PRN / # OF OBS
   G13   875   873         874   873                        PRN / # OF OBS
   G14  1083  1081  1081  1081  1081  1081                  PRN / # OF OBS
   G15   874   872         871   870                        PRN / # OF OBS
   G16   938   930         935   930                        PRN / # OF OBS
   G17  1099  1098        1098  1098                        PRN / # OF OBS
   G18  1015  1011  1015  1012  1010  1015                  PRN / # OF OBS
   G19  1096  1096        1096  1096                        PRN / # OF OBS
   G20   989   984         989   984                        PRN / # OF OBS
   G21   928   927         926   925                        PRN / # OF OBS
   G22  1129  1127        1128  1126                        PRN / # OF OBS
   G23  1128  1126  1128  1128  1126  1128                  PRN / # OF OBS
   G24   877   877   877   877   877   877                  PRN / # OF OBS
   G25   889   889   889   888   888   889                  PRN / # OF OBS
   G26   795   794   795   793   793   795                  PRN / # OF OBS
   G27   860   859   859   859   858   859                  PRN / # OF OBS
   G29   807   807         807   807                        PRN / # OF OBS
   G30   786   785   786   784   784   786                  PRN / # OF OBS
   G31  1028  1028        1026  1026                        PRN / # OF OBS
   G32  1106  1105  1105  1105  1105  1105                  PRN / # OF OBS
                                                            END OF HEADER
 22  6 17  0  0  0.0000000  0  9G05G07G13G14G15G18G20G24G30
  20949060.820    20949056.240                   110088125.8530   85782971.4480

  25082137.040    25082133.460                   131807770.1150  102707459.2060

  20244363.360    20244358.060                   106384961.8610   82897433.6560

  21312989.640    21312985.720    21312989.920   112000667.7760   87273309.6320
  83636954.2360
  21598177.720    21598173.800                   113499275.0090   88441015.3250

  24417069.800    24417067.740    24417073.260   128312571.4950   99983806.2750
  95817854.4050
  22344684.180    22344680.360                   117422160.7340   91497816.4780

  23748209.220    23748210.820    23748211.820   124797695.7130   97244953.3270
  93193108.6780
  22774464.140    22774462.280    22774463.300   119680843.1050   93257909.4430
  89372184.5410
 22  6 17  0  0 30.0000000  0  9G05G07G13G14G15G18G20G24G30
  20959060.300    20959055.600                   110140672.9050   85823917.1880

  25098410.840    25098407.240                   131893291.0930  102774098.9170

  20241632.140    20241626.980                   106370609.6150   82886250.1070

  21315029.280    21315025.300    21315029.520   112011386.0040   87281661.5100
  83644958.1290
  21583860.420    21583856.520                   113424037.2500   88382388.5430

  24421764.100    24421762.400    24421768.000   128337241.5060  100003029.6560
  95836276.8000
  22363909.340    22363905.520                   117523189.3190   91576539.9630

  23730257.580    23730259.020    23730260.260   124703360.6060   97171445.6360
  93122663.8390
  22789457.340    22789455.440    22789456.680   119759632.8870   93319304.0640
  89431021.0510
 22  6 17  0  1  0.0000000  0 10G05G07G13G14G15G18G20G23G24G30
  20969161.540    20969156.920                   110193755.0450   85865279.8870

  25114681.860    25114678.540                   131978795.5940  102840725.7060

  20238960.060    20238955.080                   106356568.5650   82875309.0510

  21317181.560    21317177.600    21317181.940   112022696.9090   87290475.2240
  83653404.6010
  21569589.480    21569585.580                   113349042.7890   88323951.3550

  24426552.000    24426550.500    24426556.120   128362402.7870  100022635.7710
  95855065.9820
  22383183.460    22383179.960                   117624475.5350   91655464.1910

  25346772.320    25346770.820    25346775.360   133198184.9911  103790791.5151
  99466187.7731
  23712337.880    23712339.100    23712340.420   124609191.9680   97098067.6540
  93052343.3110
  22804474.920    22804472.940    22804474.180   119838550.7420   93380798.4940
  89489953.2040
 22  6 17  0  1 30.0000000  0 11G05G07G13G14G15G17G18G20G23G24G30
  20979362.600    20979358.140                   110247362.6340   85907052.0240

  25130948.320    25130945.020                   132064275.6640  102907333.4920

  20236346.040    20236340.960                   106342831.4900   82864604.8570

  21319445.240    21319441.240    21319445.600   112034592.2990   87299744.3800
  83662287.5600
  21555363.700    21555359.740                   113274285.6920   88265699.1170

  25250329.200    25250327.920                   132691379.8111  103395878.7671

  24431431.700    24431430.640    24431435.580   128388045.8330  100042617.3330
  95874215.0060
  22402504.700    22402501.340                   117726008.6610   91734580.8240

  25326912.740    25326910.200    25326915.220   133093819.0720  103709467.5090
  99388252.3450
  23694448.620    23694449.660    23694450.900   124515183.0090   97024814.0900
  92982142.0200
  22819515.220    22819513.260    22819514.440   119917587.7340   93442385.7570
  89548974.3320
 22  6 17  0  2  0.0000000  0 10G05G07G13G14G15G18G20G23G24G30
  20989664.180    20989659.920                   110301498.9400   85949236.1380

  25147210.820    25147207.320                   132149735.0660  102973925.2170

  20233790.900    20233785.700                   106329403.8730   82854141.8000

  21321820.940    21321816.800    21321821.140   112047076.0870   87309472.0220
  83671609.8830
  21541184.080    21541180.260                   113199772.3220   88207636.8000

  24436403.960    24436402.380    24436407.400   128414173.4890  100062976.5120
  95893725.8660
  22421873.280    22421869.820                   117827790.3400   91813891.1560

  25307084.320    25307081.960    25307086.980   132989620.2140  103628273.6960
  99310441.6050
  23676590.540    23676591.740    23676592.640   124421338.8830   96951688.9870
  92912063.8080
  22834578.640    22834576.940    22834577.800   119996746.9320   93504068.2360
  89608086.7120
 22  6 17  0  2 30.0000000  0 11G05G07G13G14G15G17G18G20G23G24G30
  21000066.600    21000062.220                   110356163.3980   85991831.8160

  25163469.620    25163466.020                   132235174.5280  103040501.3580

  20231294.980    20231289.700                   106316287.5750   82843921.3280

  21324308.800    21324304.400    21324308.840   112060149.2340   87319658.9060
  83681372.3060
  21527051.560    21527047.740                   113125506.2080   88149767.1380

  25222273.040    25222270.340                   132543933.9401  103280993.4131

  24441467.800    24441466.620    24441471.520   128440785.4400  100083713.0840
  95913598.3780
  22441288.900    22441285.200                   117929819.1260   91893394.0550

  25287288.020    25287286.180    25287291.240   132885592.5300  103547213.2590
  99232758.6770
  23658764.040    23658765.300    23658766.200   124327661.8350   96878694.0370
  92842110.3570
  22849665.540    22849663.700    22849664.560   120076028.5090   93565846.0860
  89667290.4760
 22  6 17  0  3  0.0000000  0 11G05G07G13G14G15G17G18G20G23G24G30
  21010568.460    21010563.940                   110411350.2170   86034834.5200

  25179723.960    25179720.140                   132320589.6350  103107058.5210

  20228857.780    20228852.580                   106303480.3160   82833941.6540

  21326907.760    21326903.440    21326907.940   112073807.4890   87330301.7140
  83691571.6720
  21512965.540    21512961.840                   113051484.5720   88092087.9800

  25208245.520    25208244.220                   132470223.0760  103223556.6690

  24446622.380    24446622.100    24446626.620   128467876.3280  100104822.7880
  95933828.5040
  22460750.060    22460746.360                   118032088.4440   91973084.3710

  25267524.320    25267522.700    25267528.040   132781734.9810  103466285.3580
  99155202.8110
  23640968.840    23640970.180    23640970.960   124234148.9650   96805827.0150
  92772279.5020
  22864774.700    22864772.800    22864773.700   120155427.5440   93627715.4520
  89726581.9530
 22  6 17  0  3 30.0000000  0 11G05G07G13G14G15G17G18G20G23G24G30
  21021169.820    21021165.100                   110467060.0120   86078244.7480

  25195973.780    25195969.880                   132405982.4010  103173598.4240

  20226479.840    20226474.760                   106290984.6400   82824204.7820

  21329618.280    21329614.220    21329618.620   112088052.3950   87341401.6720
  83702209.1310
  21498927.020    21498923.400                   112977711.7540   88034602.7160

  25194219.600    25194219.500                   132396520.7540  103166126.4660

  24451869.160    24451868.680    24451873.360   128495446.4880  100126305.9930
  95954416.5720
  22480256.720    22480253.300                   118134597.7530   92052961.6910

  25247794.040    25247792.540    25247797.640   132678052.3560  103385493.8110
  99077777.5590
  23623205.500    23623206.960    23623207.980   124140803.2710   96733090.2510
  92702573.4660
  22879906.340    22879904.480    22879905.260   120234944.8510   93689676.9880
  89785961.7550
 22  6 17  0  4  0.0000000  0 11G05G07G13G14G15G17G18G20G23G24G30
  21031870.140    21031865.440                   110523290.5290   86122060.7200

  25212218.740    25212214.860                   132491350.6650  103240119.1070

  20224161.280    20224156.260                   106278800.5090   82814710.6680

  21332440.260    21332436.400    21332440.540   112102882.5460   87352957.6480
  83713283.6200
  21484936.140    21484932.540                   112904188.7440   87977312.0960

  25180196.820    25180195.860                   132322830.3820  103108705.7110

  24457206.420    24457205.500    24457210.520   128523493.2820  100148160.6130
  95975360.5810
  22499808.480    22499805.300                   118237343.3450   92133023.1300

  25228097.300    25228095.260    25228100.740   132574546.3870  103304839.8640
  99000484.2090
  23605474.200    23605475.320    23605476.900   124047624.7310   96660483.7730
  92632992.3050
  22895060.020    22895058.240    22895059.120   120314578.3080   93751729.0140
  89845428.2900
 22  6 17  0  4 30.0000000  0 11G05G07G13G14G15G17G18G20G23G24G30
  21042669.840    21042665.280                   110580043.7030   86166283.9520

  25228459.420    25228455.580                   132576698.1560  103306623.6370

  20221903.040    20221897.900                   106266932.7290   82805463.0640

  21335374.420    21335370.580    21335374.560   112118301.2930   87364972.2660
  83724797.6250
  21470993.820    21470990.240                   112830921.4610   87920220.7550

  25166177.160    25166177.020                   132249158.4770  103051299.2620

  24462634.660    24462633.660    24462638.560   128552018.9410  100170388.3630
  95996662.1720
  22519405.620    22519402.340                   118340326.2910   92213269.5500

  25208435.300    25208433.940    25208438.780   132471223.7870  103224328.8150
  98923327.8220
  23587775.600    23587776.500    23587778.300   123954618.0130   96588011.1470
  92563539.3820
  22910236.400    22910234.500    22910235.400   120394330.6950   93813873.7140
  89904983.6120
 22  6 17  0  5  0.0000000  0 11G05G07G13G14G15G17G18G20G23G24G30
  21053567.000    21053562.540                   110637309.4010   86210906.5660

  25244694.500    25244691.200                   132662016.0080  103373105.0390

  20219703.520    20219698.320                   106255374.1500   82796456.3990

  21338419.020    21338414.960    21338419.160   112134300.2300   87377438.9810
  83736744.8950
  21457099.000    21457095.340                   112757903.6970   87863323.8480

  25152160.300    25152158.400                   132175499.5060  102993902.8810

  24468152.560    24468151.380    24468156.460   128581013.8650  100192981.7730
  96018314.1690
  22539045.820    22539042.280                   118443535.7470   92293692.4710

  25188807.680    25188805.740    25188810.880   132368079.5400  103143956.7360
  98846304.5520
  23570108.660    23570109.300    23570110.820   123861776.2350   96515667.0640
  92494209.6650
  22925433.740    22925431.660    22925432.720   120474192.9110   93876104.0130
  89964620.9790
 22  6 17  0  5 30.0000000  0 11G05G07G13G14G15G17G18G20G23G24G30
  21064562.580    21064558.300                   110695092.2600   86255932.1540

  25260925.340    25260922.600                   132747310.3180  103439568.1560

  20217564.140    20217558.940                   106244131.8660   82787696.1820

  21341574.960    21341570.780    21341575.220   112150884.8380   87390362.0640
  83749129.5230
  21443253.360    21443249.400                   112685143.4930   87806627.6170

  25138147.380    25138146.880                   132101862.9430  102936523.7980

  24473760.780    24473759.080    24473764.200   128610482.4330  100215944.2260
  96040319.8290
  22558729.780    22558726.300                   118546975.3340   92374294.6990

  25169215.700    25169213.500    25169218.640   132265122.3680  103063730.4500
  98769421.0420
  23552473.940    23552474.440    23552476.060   123769106.2270   96443456.8120
  92425008.2090
  22940652.680    22940650.800    22940651.940   120554169.9290   93938423.7450
  90024344.0470
 22  6 17  0  6  0.0000000  0 11G05G07G13G14G15G17G18G20G23G24G30
  21075655.840    21075651.540                   110753387.2860   86301356.8250

  25277151.300    25277148.220                   132832577.1600  103506009.8570

  20215484.500    20215479.280                   106233203.4600   82779180.5450

  21344841.460    21344837.340    21344841.920   112168051.2050   87403738.4710
  83761948.5890
  21429456.200    21429452.240                   112612639.2980   87750130.8830

  25124139.360    25124138.180                   132028248.4100  102879161.9880

  24479457.160    24479456.040    24479461.300   128640419.5130  100239271.7660
  96062675.3760
  22578456.340    22578452.980                   118650638.8100   92455071.3680

  25149658.760    25149656.920    25149661.740   132162351.7180  102983649.4500
  98692676.7800
  23534871.120    23534872.200    23534873.680   123676605.5060   96371378.4550
  92355933.1580
  22955892.740    22955891.020    22955892.000   120634257.2110   94000829.4070
  90084149.4750
 22  6 17  0  6 30.0000000  0 11G05G07G13G14G15G17G18G20G23G24G30
  21086846.220    21086841.840                   110812192.8070   86347179.2920

  25293372.100    25293368.580                   132917816.1660  103572429.8560

  20213464.840    20213459.560                   106222590.0410   82770910.3670

  21348218.700    21348214.580    21348219.180   112185799.0210   87417567.9410
  83775201.8390
  21415708.220    21415704.260                   112540393.5040   87693835.5020

  25110135.380    25110134.360                   131954659.5570  102821820.1700

  24485242.740    24485242.000    24485247.260   128670823.6380  100262963.2490
  96085379.7240
  22598225.040    22598221.640                   118754523.8320   92536020.7060

  25130137.780    25130136.680    25130141.060   132059770.5640  102903716.1900
  98616074.0880
  23517301.220    23517302.400    23517303.780   123584275.3820   96299433.0390
  92286985.4770
  22971153.620    22971151.780    22971153.040   120714453.9450   94063320.3520
  90144036.6310
 22  6 17  0  7  0.0000000  0 11G05G07G13G14G15G17G18G20G23G24G30
  21098134.040    21098129.480                   110871509.7210   86393400.2620

  25309587.400    25309583.620                   133003029.3350  103638829.7020

  20211505.740    20211500.440                   106212294.9870   82762888.2620

  21351707.060    21351703.020    21351707.420   112204130.1950   87431852.0000
  83788890.7190
  21402010.300    21402006.320                   112468410.6010   87637744.9710

  25096137.940    25096137.080                   131881101.4440  102764502.3670

  24491117.920    24491117.120    24491122.000   128701695.6860  100287019.3510
  96108433.4520
  22618035.720    22618032.380                   118858630.0240   92617142.3680

  25110654.380    25110653.220    25110657.520   131957384.3640  102823934.7770
  98539616.9410
  23499764.480    23499765.640    23499767.040   123492119.1960   96227623.1710
  92218167.7170
  22986435.780    22986433.820    22986435.120   120794761.5990   94125897.7360
  90204006.6170
 22  6 17  0  7 30.0000000  0 11G05G07G13G14G15G17G18G20G23G24G30
  21109518.280    21109513.700                   110931334.2380   86440016.7500

  25325797.620    25325793.940                   133088214.5220  103705207.7510

  20209607.100    20209601.800                   106202317.4700   82755113.5810

  21355305.840    21355301.900    21355306.080   112223042.0800   87446588.5290
  83803013.2260
  21388362.340    21388358.360                   112396690.2710   87581859.0310

  25082146.080    25082145.100                   131807574.6460  102707208.9260

  24497080.980    24497080.220    24497085.120   128733031.6970  100311436.9730
  96131833.6880
  22637887.680    22637884.340                   118962952.7200   92698432.7210

  25091208.180    25091207.140    25091211.360   131855193.8380  102744305.8530
  98463305.8930
  23482260.680    23482261.360    23482263.040   123400135.7860   96155947.9030
  92149478.9630
  23001738.380    23001736.400    23001737.700   120875176.9820   94188559.0570
  90264057.0410
 22  6 17  0  8  0.0000000  0 11G05G07G13G14G15G17G18G20G23G24G30
  21120998.240    21120993.860                   110991662.3180   86487025.6340

  25342002.140    25341998.400                   133173369.2390  103771562.1350

  20207768.640    20207763.360                   106192656.1290   82747585.2760

  21359014.700    21359010.680    21359014.840   112242531.9840   87461775.4920
  83817567.3970
  21374764.400    21374760.300                   112325232.4930   87526177.6900

  25068160.400    25068158.840                   131734081.4770  102649941.7940

  24503131.420    24503130.520    24503135.920   128764828.0030  100336213.2540
  96155577.6040
  22657780.060    22657776.580                   119067487.0940   92779888.0310

  25071799.100    25071798.800    25071802.720   131753199.8640  102664830.0530
  98387141.6400
  23464789.420    23464789.900    23464791.560   123308324.0340   96084406.4010
  92080918.3790
  23017060.920    23017058.860    23017060.160   120955697.0340   94251301.9530
  90324185.6340
 22  6 17  0  8 30.0000000  0 11G05G07G13G14G15G17G18G20G23G24G30
  21132574.160    21132569.840                   111052494.5430   86534427.3490

  25358201.180    25358197.380                   133258495.0970  103837894.0500

  20205990.840    20205985.580                   106183313.7720   82740305.5270

  21362833.760    21362829.760    21362833.940   112262601.3540   87477413.9560
  83832554.2720
  21361217.080    21361212.980                   112254041.2790   87470704.0500

  25054182.360    25054181.740                   131660626.0740  102592704.0220

  24509269.800    24509268.680    24509274.420   128797084.7850  100361348.3660
  96179665.4280
  22677712.540    22677709.000                   119172232.4130   92861507.7050

  25052428.540    25052428.520    25052432.100   131651407.2390  102585511.1860
  98311127.7100
  23447351.300    23447351.740    23447353.380   123216687.1400   96013001.2320
  92012488.4820
  23032403.520    23032401.680    23032402.660   121036322.7730   94314127.1820
  90384393.1470
 22  6 17  0  9  0.0000000  0 11G05G07G13G14G15G17G18G20G23G24G30
  21144246.400    21144242.080                   111113832.2790   86582222.9710

  25374395.240    25374391.560                   133343595.0100  103904205.6890

  20204274.680    20204269.400                   106174295.3320   82733278.1790

  21366763.620    21366759.620    21366763.840   112283253.0970   87493506.2410
  83847976.0420
  21347721.460    21347717.560                   112183122.1740   87415442.4450

  25040212.260    25040211.720                   131587215.3850  102535501.1260

  24515496.320    24515495.000    24515500.500   128829803.9210  100386843.7630
  96204098.4970
  22697685.320    22697681.860                   119277189.6550   92943292.5030

  25033097.800    25033097.300    25033101.280   131549822.4630  102506354.2590
  98235268.9730
  23429947.160    23429947.700    23429949.100   123125229.2600   95941735.4930
  91944192.1740
  23047766.820    23047765.080    23047765.660   121117056.7080   94377036.7390
  90444681.4830
 22  6 17  0  9 30.0000000  0 11G05G07G13G14G15G17G18G20G23G24G30
  21156012.820    21156008.360                   111175664.6370   86630404.0150

  25390582.080    25390578.980                   133428659.4720  103970489.7490

  20202618.540    20202613.280                   106165592.3860   82726496.6730

  21370802.360    21370798.320    21370802.620   112304477.1020   87510044.4360
  83863825.1490
  21334276.360    21334272.500                   112112468.1990   87360387.4380

  25026250.280    25026249.060                   131513842.7620  102478327.8760

  24521808.280    24521807.200    24521812.560   128862974.0990  100412690.6140
  96228868.3850
  22717696.080    22717692.800                   119382346.8770   93025233.1200

  25013805.420    25013804.800    25013808.840   131448438.9950  102427354.1950
  98159560.6060
  23412575.560    23412576.300    23412577.420   123033942.0500   95870602.7270
  91876023.2910
  23063148.660    23063146.980    23063147.440   121197888.4600   94440022.4940
  90505042.8250
 22  6 17  0 10  0.0000000  0 11G05G07G13G14G15G17G18G20G23G24G30
  21167874.400    21167870.060                   111237998.4460   86678975.7880

  25406763.660    25406761.020                   133513696.8690  104036752.6100

  20201024.180    20201018.920                   106157214.0630   82719968.1200

  21374951.520    21374947.540    21374951.820   112326281.3850   87527034.7900
  83880107.5660
  21320883.740    21320879.900                   112042089.7760   87305547.1330

  25012296.880    25012296.560                   131440520.2480  102421193.6560

  24528207.540    24528206.460    24528211.780   128896602.2370  100438894.2750
  96253980.2180
  22737745.960    22737742.840                   119487709.8780   93107334.0670

  24994553.460    24994552.060    24994556.660   131347268.3270  102348519.9570
  98084011.1510
  23395238.200    23395239.300    23395240.100   122942835.0080   95799610.3740
  91807988.9820
  23078550.680    23078548.800    23078549.360   121278825.5810   94503090.3620
  90565482.8610
 22  6 17  0 10 30.0000000  0 11G05G07G13G14G15G17G18G20G23G24G30
  21179830.360    21179825.860                   111300826.8770   86727932.9950

  25422939.320    25422937.180                   133598702.3960  104102990.6510

  20199490.980    20199485.740                   106149157.2890   82713690.1170

  21379210.180    21379206.240    21379210.440   112348660.9050   87544473.3850
  83896819.5580
  21307543.220    21307539.320                   111971984.6360   87250919.7860

  24998353.060    24998352.100                   131367246.8180  102364097.6430

  24534692.860    24534691.860    24534696.880   128930682.2200  100465450.0660
  96279429.5140
  22757833.640    22757830.580                   119593271.6670   93189589.9290

  24975341.440    24975339.820    24975344.540   131246309.1870  102269850.5680
  98008619.6800
  23377934.860    23377935.780    23377936.580   122851904.9670   95728755.9480
  91740086.8500
  23093971.760    23093969.660    23093970.320   121359862.8730   94566236.2940
  90625997.7180
 22  6 17  0 11  0.0000000  0 11G05G07G13G14G15G17G18G20G23G24G30
  21191879.680    21191875.180                   111364146.5020   86777272.9460

  25439108.980    25439106.360                   133683673.4290  104169201.9260

  20198018.760    20198013.520                   106141420.5400   82707661.4890

  21383577.760    21383573.840    21383578.040   112371612.6240   87562357.8400
  83913958.8330
  21294254.640    21294250.600                   111902152.2460   87196504.9700

  24984419.060    24984417.720                   131294023.0700  102307040.3940

  24541263.300    24541261.960    24541267.060   128965209.9050  100492354.7010
  96305213.0970
  22777958.360    22777954.940                   119699027.2430   93271996.8000

  24956169.960    24956168.180    24956172.760   131145562.1150  102191346.3840
  97933386.5140
  23360665.100    23360665.660    23360666.620   122761150.3810   95658038.2180
  91672315.7350
  23109410.860    23109408.980    23109409.840   121440997.0160   94629457.6890
  90686584.8890
 22  6 17  0 11 30.0000000  0 11G05G07G13G14G15G17G18G20G23G24G30
  21204022.580    21204018.120                   111427957.3920   86826995.6920

  25455272.480    25455269.480                   133768612.1330  104235387.9800

  20196608.120    20196602.860                   106134007.3840   82701885.0120

  21388054.380    21388050.560    21388054.780   112395138.0730   87580689.3700
  83931526.5540
  21281018.840    21281014.580                   111832596.9410   87142306.0570

  24970495.560    24970494.940                   131220853.8720  102250025.5840

  24547918.640    24547917.580    24547922.960   129000185.6530  100519608.4710
  96331331.2970
  22798119.920    22798116.380                   119804976.0130   93354554.1920

  24937039.540    24937038.060    24937042.160   131045032.1960  102113011.4600
  97858315.5410
  23343429.100    23343429.560    23343430.440   122670574.4720   95587459.7120
  91604678.0310
  23124868.600    23124866.800    23124867.940   121522229.3230   94692755.5780
  90747245.3640
 22  6 17  0 12  0.0000000  0 11G05G07G13G14G15G17G18G20G23G24G30
  21216258.800    21216254.180                   111492258.3840   86877100.3370

  25471429.920    25471426.520                   133853518.5110  104301548.8100

  20195259.320    20195253.980                   106126919.1350   82696361.7070

  21392640.180    21392636.360    21392640.600   112419237.1710   87599467.8930
  83949522.6320
  21267836.260    21267831.920                   111763321.5270   87088325.2500

  24956582.440    24956581.020                   131147743.0020  102193056.2340

  24554659.440    24554658.560    24554663.580   129035608.3280  100547210.4860
  96357783.2160
  22818317.960    22818314.200                   119911116.1840   93437260.7330

  24917951.280    24917949.980    24917953.480   130944723.0430  102034848.5040
  97783409.4150
  23326227.060    23326227.680    23326228.480   122580178.8620   95517021.7260
  91537174.9520
  23140344.880    23140343.240    23140344.500   121603559.4860   94756129.7110
  90807978.8850
 22  6 17  0 12 30.0000000  0 11G05G07G13G14G15G17G18G20G23G24G30
  21228587.580    21228582.980                   111557046.5940   86927584.6340

  25487581.060    25487576.920                   133938391.6140  104367683.7900

  20193972.240    20193966.920                   106120156.0200   82691091.7560

  21397334.980    21397331.180    21397335.340   112443908.0730   87618691.9780
  83967945.7140
  21254707.200    21254702.640                   111694327.1340   87034563.4070

  24942681.760    24942679.760                   131074693.7180  102136134.8410

  24561485.100    24561483.780    24561488.900   129071474.9040  100575158.4280
  96384566.6650
  22838551.600    22838547.820                   120017444.0360   93520113.4840

  24898905.420    24898904.260    24898907.440   130844636.5210  101956859.1150
  97708669.5630
  23309059.640    23309060.040    23309061.000   122489963.3120   95446723.9830
  91469806.3470
  23155839.640    23155838.120    23155839.300   121684985.4780   94819578.5340
  90868784.0060
 22  6 17  0 13  0.0000000  0 11G05G07G13G14G15G17G18G20G23G24G30
  21241008.000    21241003.520                   111622316.9600   86978444.6410

  25503724.740    25503720.900                   134023227.7190  104433789.8440

  20192746.620    20192741.280                   106113715.5720   82686073.2310

  21402137.920    21402134.060    21402138.080   112469146.7840   87638358.5140
  83986792.8130
  21241631.060    21241626.720                   111625612.4900   86981019.5660

  24928792.460    24928791.040                   131001705.4240  102079260.9530

  24568393.900    24568392.520    24568398.020   129107780.4440  100603448.4020
  96411677.8980
  22858819.800    22858816.220                   120123953.9120   93603108.0620

  24879902.100    24879900.760    24879903.900   130744772.3940  101879042.9770
  97634095.7950
  23291926.040    23291926.320    23291927.420   122399925.8170   95376564.9940
  91402570.6560
  23171351.920    23171350.460    23171351.440   121766503.1930   94883098.8230
  90929657.6190
 22  6 17  0 13 30.0000000  0 11G05G07G13G14G15G17G18G20G23G24G30
  21253521.160    21253516.680                   111688073.9490   87029683.8390

  25519862.800    25519859.160                   134108033.2610  104499872.1350

  20191583.820    20191578.480                   106107604.9980   82681311.7490

  21407049.800    21407045.900    21407049.880   112494958.7960   87658471.7810
  84006068.0210
  21228609.820    21228605.660                   111557186.3970   86927700.5570

  24914916.700    24914914.800                   130928787.3430  102022441.8350

  24575387.000    24575385.720    24575391.260   129144529.2830  100632083.8460
  96439120.1650
  22879123.400    22879119.980                   120230649.5430   93686247.4120

  24860942.680    24860940.780    24860944.260   130645139.8720  101801407.3490
  97559694.9990
  23274827.700    23274827.660    23274828.860   122310073.4160   95306550.2510
  91335473.2130
  23186882.760    23186881.500    23186882.120   121848118.0410   94946694.7790
  90990603.7380
 22  6 17  0 14  0.0000000  0 11G05G07G13G14G15G17G18G20G23G24G30
  21266125.560    21266121.240                   111754310.7570   87081296.9200

  25535993.940    25535990.500                   134192803.3050  104565926.8440

  20190483.180    20190477.900                   106101820.9780   82676804.7260

  21412069.760    21412065.740    21412069.880   112521338.7110   87679027.5610
  84025767.3160
  21215642.880    21215638.880                   111489045.6870   86874603.9280

  24901053.660    24901051.720                   130855938.1000  101965676.3320

  24582463.440    24582461.820    24582467.020   129181714.9230  100661059.6330
  96466888.6410
  22899460.820    22899457.440                   120337523.0440   93769525.3360

  24842026.700    24842024.560    24842028.400   130545737.3130  101723950.9160
  97485465.9100
  23257764.040    23257763.740    23257765.140   122220402.5620   95236676.9510
  91268511.3320
  23202431.160    23202429.700    23202430.280   121929824.5220   95010362.1470
  91051618.2990
 22  6 17  0 14 30.0000000  0 11G05G07G13G14G15G17G18G20G23G24G30
  21278820.480    21278816.340                   111821023.8370   87133281.1170

  25552117.740    25552114.260                   134277535.5700  104631951.9880

  20189444.460    20189439.180                   106096362.7250   82672551.5440

  21417197.320    21417193.240    21417197.440   112548284.0870   87700023.9530
  84045888.8650
  21202730.500    21202726.500                   111421190.9870   86821730.1630

  24887204.580    24887202.420                   130783159.5920  101908965.9990

  24589621.840    24589620.460    24589625.600   129219333.8270  100690373.0200
  96494980.6290
  22919831.240    22919828.000                   120444570.3790   93852938.7100

  24823154.860    24823152.820    24823156.920   130446566.0600  101646674.6780
  97411409.5840
  23240734.460    23240734.440    23240735.660   122130912.5220   95166944.5720
  91201684.4710
  23217996.300    23217994.920    23217995.560   122011620.1160   95074098.9470
  91112699.3830
 22  6 17  0 15  0.0000000  0 11G05G07G13G14G15G17G18G20G23G24G30
  21291606.580    21291602.580                   111888215.8080   87185638.4790

  25568235.340    25568232.100                   134362235.0420  104697951.4450

  20188468.880    20188463.580                   106091236.1440   82668556.8060

  21422433.220    21422429.140    21422433.300   112575798.6560   87721463.8880
  84066435.4730
  21189873.860    21189869.840                   111353629.0900   86769084.5580

  24873369.980    24873368.100                   130710459.4080  101852316.6870

  24596863.340    24596862.140    24596867.360   129257388.7420  100720026.1680
  96523398.1990
  22940235.200    22940231.920                   120551793.7810   93936489.2820

  24804328.580    24804326.780    24804330.700   130347633.6670  101569584.6220
  97337531.5960
  23223740.320    23223740.440    23223741.820   122041608.9190   95097357.4540
  91134996.8620
  23233579.420    23233577.820    23233578.400   122093508.5120   95137908.0780
  91173849.8060
 22  6 17  0 15 30.0000000  0 11G05G07G13G14G15G17G18G20G23G24G30
  21304483.220    21304479.100                   111955882.5010   87238365.7430

  25584346.160    25584342.580                   134446898.4580  104763922.7600

  20187556.100    20187550.800                   106086439.3390   82664819.0300

  21427776.700    21427772.700    21427776.900   112603878.9750   87743344.6520
  84087404.5320
  21177072.920    21177068.900                   111286359.5780   86716666.7730

  24859550.320    24859548.340                   130637837.8740  101795728.6690

  24604187.160    24604186.020    24604191.020   129295875.0790  100750015.4500
  96552137.9220
  22960671.640    22960668.560                   120659188.1400   94020173.0350

  24785547.980    24785546.300    24785550.420   130248940.5380  101492680.9690
  97263832.3050
  23206781.400    23206781.560    23206783.060   121952490.0600   95027914.2860
  91068447.1760
  23249179.400    23249177.480    23249178.500   122175486.2900   95201786.8400
  91235066.9490
 22  6 17  0 16  0.0000000  0 11G05G07G13G14G15G17G18G20G23G24G30
  21317449.400    21317445.060                   112024019.0680   87291459.1580

  25600449.880    25600446.260                   134531523.4550  104829864.3140

  20186705.700    20186700.440                   106081970.3130   82661336.6740

  21433227.220    21433223.140    21433227.340   112632521.2730   87765663.3380
  84108793.2760
  21164327.560    21164323.480                   111219381.7650   86664476.3000

  24845745.860    24845743.760                   130565295.5460  101739202.4130

  24611592.100    24611591.060    24611596.200   129334788.0970  100780337.2340
  96581196.2800
  22981139.620    22981136.500                   120766747.7090   94103985.5410

  24766812.960    24766810.960    24766815.480   130150486.7860  101415963.8670
  97190311.7600
  23189857.200    23189857.620    23189859.140   121863554.0900   94958613.6280
  91002034.0730
  23264795.600    23264793.660    23264794.640   122257549.7410   95265732.3820
  91296348.0770
 22  6 17  0 16 30.0000000  0 11G05G07G13G14G15G17G18G20G23G24G30
  21330504.160    21330499.720                   112092621.1590   87344915.3060

  25616547.140    25616549.880

  20185917.660    20185912.280                   106077828.4620   82658109.2550

  21438783.980    21438779.980    21438784.160   112661722.6740   87788417.6830
  84130599.5180
  21151637.500    21151633.360                   111152695.3600   86612512.8960

  24831956.620    24831955.160                   130492833.3870  101682738.5570

  24619077.440    24619076.280    24619081.700   129374123.7580  100810988.3730
  96610570.2890
  23001638.220    23001635.140                   120874467.5340   94187922.9000

  24748123.360    24748121.220    24748125.920   130052273.3580  101339434.0100
  97116970.6780
  23172967.700    23172968.160    23172969.540   121774799.9040   94889454.6240
  90935756.6930
  23280427.500    23280425.740    23280426.600   122339695.9850   95329742.4300
  91357691.0240
 22  6 17  0 17  0.0000000  0 11G05G07G13G14G15G17G18G20G23G24G30
  21343648.240    21343643.680                   112161693.3880   87398737.7990

  25632637.040    25632629.860

  20185193.160    20185187.700                   106074020.9050   82655142.3280

  21444448.240    21444444.120    21444448.500   112691488.6060   87811611.9170
  84152827.3300
  21139004.580    21139000.420                   111086309.2750   86560783.5070

  24818184.480    24818182.620                   130420461.1770  101626344.8730

  24626643.960    24626642.860    24626648.400   129413886.5460  100841972.3000
  96640263.2060
  23022168.060    23022164.880                   120982351.8540   94271988.4240

  24729481.120    24729479.260    24729483.880   129954309.5720  101263098.7100
  97043816.0070
  23156114.240    23156114.540    23156116.060   121686234.8890   94820443.0330
  90869620.6450
  23296075.940    23296074.580    23296075.360   122421930.6030   95393821.3060
  91419099.9550
 22  6 17  0 17 30.0000000  0 11G05G07G13G14G15G17G18G20G23G24G30
  21356882.780    21356878.260                   112231241.8400   87452931.3760

  25648719.500    25648715.920                   134784942.8091  105027203.7191

  20184533.920    20184528.500                   106070556.8620   82652443.0650

  21450221.140    21450217.020    21450221.580   112721826.1550   87835251.5700
  84175481.9990
  21126430.740    21126426.560                   111020233.3570   86509295.8000

  24804431.340    24804429.760                   130348190.0010  101570029.7730

  24634292.700    24634292.000    24634297.720   129454082.4600  100873293.7460
  96670279.5870
  23042730.160    23042727.160                   121090405.8250   94356186.1390

  24710888.680    24710886.580    24710891.800   129856606.4970  101186966.5300
  96970856.0190
  23139298.640    23139298.800    23139300.040   121597867.9810   94751585.8220
  90803632.4990
  23311742.860    23311741.560    23311742.380   122504260.7680   95457974.6570
  91480580.2560
 22  6 17  0 18  0.0000000  0 10G05G13G14G15G17G18G20G23G24G30
  21370200.660    21370196.120                   112301227.6350   87507465.7380

  20183933.220    20183927.840                   106067400.2590   82649983.3790

  21456095.560    21456091.580    21456096.180   112752697.3810   87859307.0620
  84198535.1810
  21113909.300    21113905.060                   110954433.0140   86458022.8360

  24790691.440    24790690.980                   130275986.2950  101513767.2100

  24642016.660    24642015.780    24642021.480   129494672.4770  100904922.2800
  96700590.2560
  23063317.160    23063314.060                   121198589.8920   94440485.2530

  24692339.540    24692337.540    24692342.580   129759130.1270  101111010.9980
  96898065.3090
  23122514.020    23122513.740    23122514.780   121509663.0770   94682854.8170
  90737765.3230
  23327420.800    23327419.420    23327420.440   122586648.6650   95522173.0020
  91542103.6460
 22  6 17  0 18 30.0000000  0 10G05G13G14G15G17G18G20G23G24G30
  21383609.480    21383604.940                   112371691.2970   87562372.4600

  20183399.340    20183394.020                   106064594.6770   82647797.2030

  21462079.720    21462075.780    21462080.360   112784143.9570   87883810.8940
  84222018.0220
  21101448.820    21101444.600                   110888952.9520   86406999.4420

  24776973.140    24776970.700                   130203895.9610  101457592.9890

  24649823.560    24649822.620    24649828.120   129535697.2590  100936889.5850
  96731225.5820
  23083936.740    23083933.600                   121306944.2770   94524917.0550

  24673842.200    24673840.240    24673844.940   129661926.0750  101035267.6650
  96825477.9870
  23105768.360    23105768.160    23105768.940   121421663.9090   94614284.1550
  90672051.7990
  23343117.740    23343116.460    23343117.160   122669136.1740   95586448.9440
  91603701.4390
 22  6 17  0 19  0.0000000  0 10G05G13G14G15G17G18G20G23G24G30
  21397105.100    21397100.580                   112442611.3770   87617634.8540

  20182928.780    20182923.600                   106062122.3560   82645870.7250

  21468169.560    21468165.740    21468170.120   112816146.1250   87908747.6500
  84245915.7390
  21089046.080    21089041.920                   110823776.6180   86356212.7180

  24763273.260    24763270.540                   130131903.4380  101401495.0160

  24657709.120    24657708.240    24657713.700   129577136.1070  100969179.5490
  96762170.0980
  23104584.460    23104581.440                   121415447.6220   94609464.9400

  24655393.780    24655391.760    24655396.340   129564978.6400  100959724.2850
  96753082.2520
  23089058.140    23089058.160    23089058.840   121333852.6020   94545859.8830
  90606478.5660
  23358829.980    23358828.460    23358829.260   122751703.7090   95650787.2640
  91665358.9890
 22  6 17  0 19 30.0000000  0 10G05G13G14G15G17G18G20G23G24G30
  21410687.220    21410682.900                   112513986.9080   87673252.1310

  20182521.880    20182516.700                   106059984.4080   82644204.7880

  21474364.960    21474361.080    21474365.420   112848702.9900   87934116.6380
  84270227.6970
  21076701.540    21076697.440                   110758905.9670   86305664.1860

  24749592.660    24749590.880                   130060011.7280  101345475.5120

  24665673.200    24665672.320    24665677.180   129618986.9810  101001790.5930
  96793422.3360
  23125259.960    23125256.840                   121524097.1280   94694126.6920

  24636994.620    24636992.460    24636997.280   129468290.7880  100884383.1920
  96680880.4100
  23072384.060    23072384.260    23072384.700   121246230.1490   94477582.7570
  90541046.3340
  23374557.080    23374555.380    23374556.520   122834350.5790   95715187.3940
  91727075.7760
 22  6 17  0 20  0.0000000  0 10G05G13G14G15G17G18G20G23G24G30
  21424355.620    21424351.540                   112585815.3000   87729222.2780

  20182178.940    20182173.640                   106058182.0470   82642800.3480

  21480665.740    21480661.740    21480666.140   112881813.6860   87959917.1770
  84294953.2000
  21064415.720    21064411.600                   110694343.3440   86255355.6750

  24735932.240    24735929.900                   129988224.2080  101289537.2680

  24673715.500    24673714.700    24673719.000   129661248.0630  101034721.2570
  96824980.8700
  23145962.880    23145959.780                   121632890.4830   94778900.5380

  24618645.540    24618643.380    24618648.540   129371865.8740  100809246.9590
  96608874.8400
  23055746.060    23055746.140    23055746.760   121158797.6990   94409453.6580
  90475755.9640
  23390299.420    23390297.360    23390298.780   122917076.2330   95779648.9180
  91788851.3700
 22  6 17  0 20 30.0000000  0 10G05G13G14G15G17G18G20G23G24G30
  21438109.980    21438106.080                   112658095.2760   87785544.3060

  20181900.260    20181894.840                   106056717.0370   82641658.7930

  21487071.900    21487067.780    21487072.060   112915477.7510   87986148.9250
  84320091.9750
  21052189.120    21052184.960                   110630091.8830   86205289.6330

  24722292.180    24722290.060                   129916545.4740  101233683.7960

  24681835.320    24681834.820    24681838.840   129703917.8890  101067970.4420
  96856844.6920
  23166692.700    23166689.660                   121741825.8040   94863784.9930

  24600347.360    24600344.880    24600349.960   129275707.4410  100734318.3730
  96537068.2900
  23039144.400    23039144.700    23039145.380   121071556.8480   94341473.8760
  90410608.6930
  23406056.680    23406054.560    23406055.780   122999880.4340   95844171.6430
  91850685.6600
 22  6 17  0 21  0.0000000  0 10G05G13G14G15G17G18G20G23G24G30
  21451950.040    21451945.980                   112730824.8140   87842216.6590

  20181685.720    20181680.380                   106055589.9610   82640780.5490

  21493582.980    21493578.820    21493583.120   112949693.9120   88012810.8610
  84345642.9910
  21040021.940    21040017.900                   110566153.1000   86155467.2320

  24708673.460    24708670.400                   129844977.8660  101177916.9000

  24690032.520    24690031.780    24690036.460   129746994.1560  101101536.2720
  96889011.9710
  23187448.940    23187446.260                   121850900.4790   94948778.0440

  24582100.400    24582097.660    24582102.360   129179818.2090  100659599.5630
  96465462.7660
  23022579.420    23022579.720    23022580.560   120984508.1970   94273643.8440
  90345604.9190
  23421828.500    23421826.440    23421827.700   123082762.2200   95908754.8080
  91912577.8500
 22  6 17  0 21 30.0000000  0 10G05G13G14G15G17G18G20G23G24G30
  21465874.900    21465870.780                   112804000.1430   87899236.3610

  20181535.400    20181530.200                   106054800.6500   82640165.4990

  21500198.620    21500194.620    21500198.860   112984459.6030   88039901.0040
  84371604.3850
  21027914.400    21027910.320                   110502527.8020   86105889.1010

  24695075.860    24695073.100                   129773523.4800  101122238.1820

  24698306.560    24698305.160    24698310.260   129790473.3660  101135416.1200
  96921480.1330
  23208230.900    23208228.140                   121960110.0960   95033876.2580

  24563904.280    24563901.980    24563906.540   129084199.7600  100585091.7370
  96394059.4880
  23006051.220    23006051.120    23006052.340   120897651.3650   94205963.2470
  90280744.3760
  23437614.760    23437612.560    23437614.080   123165719.3790   95973396.7200
  91974526.3350
 22  6 17  0 22  0.0000000  0 10G05G13G14G15G17G18G20G23G24G30
  21479883.920    21479879.560                   112877616.8990   87956600.0490

  20181449.220    20181444.020                   106054347.7290   82639812.5740

  21506918.260    21506914.420    21506918.500   113019771.7310   88067416.9580
  84397973.8330
  21015866.540    21015862.500                   110439216.0860   86056555.3290

  24681500.100    24681498.140                   129702183.0760  101066648.3580

  24706656.280    24706654.860    24706659.800   129834351.3270  101169606.7110
  96954246.0830
  23229037.720    23229035.100                   122069450.3920   95119076.3080

  24545760.340    24545757.920    24545762.740   128988853.1500  100510795.7090
  96322859.1170
  22989559.100    22989558.880    22989560.320   120810985.2230   94138431.2500
  90216026.2340
  23453414.860    23453412.780    23453414.020   123248749.1680   96038095.2220
  92036529.0540
 22  6 17  0 22 30.0000000  0 10G05G13G14G15G17G18G20G23G24G30
  21493978.020    21493973.620                   112951681.9320   88014313.0360

  20181429.000    20181423.580                   106054240.5280   82639729.0470

  21513743.260    21513739.460    21513743.540   113055637.4450   88095364.2720
  84424756.6720
  21003880.460    21003876.320                   110376228.5580   86007474.1710

  24667947.820    24667946.060                   129630968.5620  101011156.6060

  24715083.120    24715082.220    24715086.640   129878634.2370  101204112.7860
  96987314.4520
  23249870.480    23249867.720                   122178926.5780   95204382.2610

  24527670.620    24527667.840    24527672.900   128893789.6110  100436720.2750
  96251870.1740
  22973104.940    22973104.860    22973106.280   120724518.9640   94071055.0340
  90151457.3740
  23469230.220    23469228.180    23469229.160   123331859.1150   96102856.1930
  92098591.6310
 22  6 17  0 23  0.0000000  0 10G05G13G14G15G17G18G20G23G24G30
  21508154.760    21508150.320                   113026181.1720   88072364.3650

  20181472.580    20181467.080                   106054469.0990   82639907.1560

  21520671.440    21520667.400    21520671.520   113092044.3020   88123733.2470
  84451943.6140
  20991954.340    20991950.060                   110313556.0280   85958638.4640

  24654418.860    24654417.120                   129559871.9960  100955756.8120

  24723584.420    24723583.400    24723588.320   129923308.7390  101238924.0450
  97020675.1770
  23270726.460    23270723.940                   122288525.0090   95289783.4830

  24509632.980    24509630.280    24509635.340   128799000.9180  100362859.0210
  96181086.4620
  22956687.180    22956686.860    22956688.480   120638242.3040   94003826.5190
  90087030.0650
  23485058.540    23485056.680    23485057.320   123415037.2030   96167670.2570
  92160705.1230
 22  6 17  0 23 30.0000000  0 10G05G13G14G15G17G18G20G23G24G30
  21522414.480    21522410.060                   113101116.5610   88130755.5450

  20181580.760    20181575.380                   106055038.0060   82640350.4570

  21527703.080    21527698.800    21527703.000   113128995.0650   88152526.0500
  84479536.7070
  20980089.280    20980084.880                   110251204.4830   85910052.8750

  24640913.240    24640911.460                   129488900.3090  100900454.3930

  24732160.480    24732159.240    24732164.960   129968376.5010  101274041.7110
  97054329.5870
  23291605.840    23291603.480                   122398246.9040   95375280.8730

  24491649.220    24491646.440    24491651.140   128704493.9030  100289217.2300
  96110513.0890
  22940306.420    22940305.880    22940307.320   120552160.0280   93936749.4660
  90022747.8950
  23500900.180    23500898.720    23500899.220   123498286.6160   96232539.8740
  92222871.8340
 22  6 17  0 24  0.0000000  0 10G05G13G14G15G17G18G20G23G24G30
  21536757.120    21536752.700                   113176487.0910   88189485.8020

  20181754.160    20181749.000                   106055949.8520   82641060.9980

  21534838.140    21534833.760    21534838.020   113166489.9350   88181742.8350
  84507536.1350
  20968286.040    20968281.580                   110189177.4730   85861720.1770

  24627432.560    24627430.180                   129418058.1140  100845252.9040

  24740811.240    24740809.340    24740815.500   130013836.8040  101309465.2740
  97088277.1310
  23312508.680    23312506.520                   122508091.6470   95460874.0420

  24473719.260    24473717.200    24473721.260   128610273.0010  100215798.4250
  96040153.4030
  22923962.740    22923962.480    22923963.700   120466274.3690   93869825.6520
  89958612.5760
  23516755.920    23516754.300    23516754.700   123581607.9520   96297465.5740
  92285092.3000
 22  6 17  0 24 30.0000000  0 10G05G13G14G15G17G18G20G23G24G30
  21551182.140    21551177.760                   113252290.9910   88248553.7430

  20181993.100    20181987.980                   106057205.5930   82642039.4950

  21542076.360    21542072.200    21542076.400   113204527.7840   88211382.7180
  84535941.0220
  20956544.800    20956540.380                   110127477.4030   85813642.2310

  24613977.100    24613975.100                   129347349.1400  100790155.1160

  24749536.520    24749534.820    24749540.180   130059687.5510  101345193.0450
  97122516.2660
  23333434.480    23333432.100                   122618056.0750   95546560.4870

  24455844.260    24455842.540    24455846.140   128516341.3130  100142604.9630
  95970009.6820
  22907656.680    22907656.620    22907657.600   120380586.4460   93803055.9150
  89894624.9280
  23532625.120    23532623.560    23532624.020   123665000.6900   96362446.8810
  92347366.0590
 22  6 17  0 25  0.0000000  0 10G05G13G14G15G17G18G20G23G24G30
  21565687.760    21565683.480                   113328518.7360   88307951.9590

  20182296.380    20182291.140                   106058798.8570   82643281.0120

  21549416.300    21549412.260    21549416.440   113243100.0260   88241439.0120
  84564744.9760
  20944864.780    20944860.380                   110066098.8960   85765814.8540

  24600545.800    24600543.480                   129276768.7320  100735157.4740

  24758334.320    24758332.540    24758337.860   130105919.2090  101381217.6810
  97157039.8540
  23354381.040    23354378.460                   122728130.2900   95632332.5040

  24438024.020    24438021.620    24438025.880   128422694.4870  100069633.4470
  95900078.6680
  22891387.140    22891387.280    22891388.180   120295089.8520   93736435.2830
  89830780.1710
  23548506.280    23548504.600    23548505.320   123748456.7570   96427477.5340
  92409687.0990
 22  6 17  0 25 30.0000000  0 10G05G13G14G15G17G18G20G23G24G30
  21580275.200    21580271.060                   113405176.8360   88367685.5130

  20182665.720    20182660.360                   106060739.5670   82644793.2580

  21556859.420    21556855.440    21556859.680   113282214.3030   88271917.6840
  84593953.6980
  20933248.040    20933243.680                   110005052.8800   85718246.5590

  24587141.640    24587138.220                   129206328.8070  100680269.2840

  24767205.500    24767204.120    24767209.680   130152538.4960  101417544.3100
  97191852.8820
  23375349.800    23375347.020                   122838320.6800   95718195.0570

  24420260.360    24420257.400    24420262.460   128329344.4170   99996893.1750
  95830369.2560
  22875156.000    22875155.880    22875156.880   120209794.2360   93669971.2340
  89767085.4710
  23564401.080    23564399.180    23564400.180   123831984.2930   96492563.8920
  92472061.4910
 22  6 17  0 26  0.0000000  0 10G05G13G14G15G17G18G20G23G24G30
  21594943.160    21594939.100                   113482257.9990   88427748.7180

  20183100.240    20183095.000                   106063023.4110   82646572.8910

  21564404.460    21564400.640    21564404.940   113321864.4210   88302813.8820
  84623562.5460
  20921694.040    20921689.780                   109944336.7130   85670935.2980

  24573763.840    24573760.960                   129136027.9620  100625489.4930

  24776149.360    24776147.980    24776153.580   130199538.2150  101454167.4080
  97226949.9960
  23396339.060    23396336.280                   122948619.9170   95804142.3760

  24402552.280    24402549.620    24402554.920   128236289.0690   99924382.5400
  95760879.9450
  22858962.300    22858961.900    22858963.220   120124695.6340   93603660.6920
  89703537.8930
  23580308.540    23580306.060    23580307.600   123915577.5900   96557701.5120
  92534485.0130
 22  6 17  0 26 30.0000000  0 10G05G13G14G15G17G18G20G23G24G30
  21609692.160    21609688.080                   113559763.9260   88488142.9100

  20183601.060    20183595.900                   106065655.4770   82648623.8470

  21572052.100    21572048.180    21572052.540   113362052.8010   88334129.4940
  84653573.3450
  20910204.060    20910199.740                   109883956.2580   85623885.6160

  24560413.720    24560411.240                   129065873.6720  100570823.9040

  24785165.840    24785164.680    24785170.080   130246919.8710  101491088.1510
  97262332.3640
  23417349.220    23417346.720                   123059028.9450   95890175.2660

  24384901.660    24384899.860    24384904.200   128143535.2500   99852106.8940
  95691615.7820
  22842806.900    22842806.500    22842807.880   120039798.6180   93537507.2180
  89640140.8190
  23596228.900    23596226.360    23596227.920   123999239.7720   96622892.7940
  92596959.9790
 22  6 17  0 27  0.0000000  0 10G05G13G14G15G17G18G20G23G24G30
  21624520.840    21624516.640                   113637688.2850   88548863.1650

  20184167.500    20184162.400                   106068632.3860   82650943.5250

  21579801.140    21579797.080    21579801.620   113402774.0050   88365860.3110
  84683982.0450
  20898777.380    20898773.100                   109823909.3060   85577095.8260

  24547091.100    24547088.180                   128995864.4110  100516271.3310

  24794253.740    24794252.940    24794258.060   130294677.0610  101528301.5060
  97297995.1710
  23438378.720    23438376.800                   123169541.3030   95976288.6050

  24367308.300    24367306.500    24367310.520   128051081.7580   99780065.3000
  95622575.9110
  22826689.340    22826688.800    22826690.180   119955100.0110   93471508.3690
  89576891.9380
  23612161.680    23612158.940    23612160.520   124082965.9530   96688133.9600
  92659482.7560
 22  6 17  0 27 30.0000000  0 10G05G13G14G15G17G18G20G23G24G30
  21639428.580    21639424.260                   113716028.0960   88609907.1390

  20184799.620    20184794.460                   106071954.2970   82653532.0350

  21587651.180    21587647.080    21587651.620   113444025.9810   88398004.6980
  84714787.0900
  20887414.560    20887410.300                   109764197.5180   85530567.1890

  24533796.640    24533793.940                   128926002.6920  100461833.6720

  24803412.640    24803411.560    24803416.720   130342806.7900  101565805.1360
  97333936.1580
  23459427.480    23459426.020                   123280153.1860   96062479.4910

  24349772.700    24349769.960    24349774.420   127958930.8200   99708259.4210
  95553761.9710
  22810609.380    22810608.860    22810610.060   119870599.9100   93405664.1970
  89513791.2940
  23628106.260    23628103.540    23628105.000   124166754.7060   96753423.8620
  92722052.2520
 22  6 17  0 28  0.0000000  0 10G05G13G14G15G17G18G20G23G24G30
  21654415.000    21654410.680                   113794782.4520   88671274.1340

  20185497.980    20185492.680                   106075623.8200   82656391.4090

  21595602.040    21595598.160    21595602.560   113485808.9570   88430562.8610
  84745988.6550
  20876116.360    20876111.980                   109704824.4670   85484302.4960

  24520531.480    24520529.080                   128856293.3880  100407514.9120

  24812642.140    24812640.620    24812646.020   130391308.3350  101603598.4720
  97370154.7610
